OBJECTID,STOPNAME,TRAPEZESTOPABBR,RUCUSSTOPABBR,STOPID,LATITUDE,LONGITUDE,ACCESSIBILITYMASK,ATSTREET,ONSTREET,POSITION,ORIENTATION,SERVICEPLANNINGSTOPTYPE,SHELTER,INSERT_TIMESTAMP,SDE_ID,SIGNUPID,SUPERVISOR_DISTRICT,shape,data_as_of,data_loaded_at,Current Police Districts,Current Supervisor Districts,Analysis Neighborhoods,Neighborhoods,SF Find Neighborhoods
72869,17th St&Noe St *-MI,17ST.NO0,17ST.NOE,3318,37.762645,-122.432991,,NOE ST,17TH ST,MI,,,0,1729767266000,15727967,147,8,POINT (-122.432991 37.762645),11/02/2024 08:47:21 PM,11/04/2024 09:42:39 AM,3,5,5,38,38
73624,Judah St&12th Ave NE-NS/SI,JUDA12A0,JUDA12AV,5195,37.762069,-122.469324,1,12TH AVE,JUDAH ST,NS,NE,SI,0,1729767266000,15730340,147,7,POINT (-122.469324 37.762069),11/02/2024 08:47:21 PM,11/04/2024 09:42:39 AM,10,11,14,109,109
73681,Mansell St&Somerset St S-NS/PS,MANSSOM0,MANSSOME,5351,37.720417999999995,-122.40509399999999,,SOMERSET ST,MANSELL ST,NS,SO,,0,1729767266000,15730619,147,9,POINT (-122.405094 37.720418),11/02/2024 08:47:21 PM,11/04/2024 09:42:39 AM,2,9,25,75,75
74029,Mission St&Sickles Ave W-FS/BZ,MISSSIC0,MISSSICK,5619,37.70866,-122.45331999999999,,SICKLES AVE,MISSION ST,FS,WE,BZ,0,1729767266000,15731572,147,11,POINT (-122.45332 37.70866),11/02/2024 08:47:21 PM,11/04/2024 09:42:39 AM,9,1,28,66,66
75912,Ulloa St&14th Ave SW-NS/PS,ULOA14S1,ULOA14AV,8137,37.741355999999996,-122.470211,,14TH AVE,ULLOA ST,NS,SW,,0,1729767266000,15739260,147,7,POINT (-122.470211 37.741356),11/02/2024 08:47:21 PM,11/04/2024 09:42:39 AM,10,8,41,46,46
75443,Hayes St&Pierce St SE-FS/BZ,HAYSPIE1,HAYSPIER,5004,37.775413,-122.434177,,PIERCE ST,HAYES ST,FS,SE,BZ,1,1729767266000,15735150,147,5,POINT (-122.434177 37.775413),11/02/2024 08:47:21 PM,11/04/2024 09:42:39 AM,4,11,9,23,23
73708,Gilman Ave&3rd St E-NS/PS,GLMN 3S1,GLMN 3ST,4783,37.722457999999996,-122.395415,,3RD ST,GILMAN AVE,NS,EA,,0,1729767266000,15730707,147,10,POINT (-122.395415 37.722458),11/02/2024 08:47:21 PM,11/04/2024 09:42:39 AM,2,9,1,88,88
73235,Church St&Clipper St NW-NS/PS,CHURCLP0,CHURCLPR,4002,37.749387999999996,-122.427289,,CLIPPER ST,CHURCH ST,NS,NW,,0,1729767266000,15729006,147,8,POINT (-122.427289 37.749388),11/02/2024 08:47:21 PM,11/04/2024 09:42:39 AM,3,5,22,84,84
74008,Mission St&26th St SW-FS/BZ,MISS26S0,MISS26ST,5568,37.74857,-122.41818,,26TH ST,MISSION ST,FS,SW,BZ,0,1729767266000,15731697,147,9,POINT (-122.41818 37.74857),11/02/2024 08:47:21 PM,11/04/2024 09:42:39 AM,3,2,20,53,53
75710,22nd Ave&Judah St SE-NS/PS,22AVJUD1,22AVJUDA,3426,37.761457,-122.480106,,JUDAH ST,22ND AVE,NS,SE,,1,1729767266000,15738505,147,4,POINT (-122.480106 37.761457),11/02/2024 08:47:21 PM,11/04/2024 09:42:39 AM,10,7,35,39,39
74165,Right Of Way&21st St NW-NS/SB,ROW 21S0,ROW 21ST,6216,37.756643,-122.42692199999999,,21ST ST,RIGHT OF WAY,NS,NW,,0,1729767266000,15732805,147,8,POINT (-122.426922 37.756643),11/02/2024 08:47:21 PM,11/04/2024 09:42:39 AM,3,5,5,52,52
75414,Munich St&Geneva Ave W-NS/SB,MNCHGNV0,MNCHGNVA,5631,37.71293,-122.43295,,GENEVA AVE,MUNICH ST,NS,WE,,0,1729767266000,15733602,147,11,POINT (-122.43295 37.71293),11/02/2024 08:47:21 PM,11/04/2024 09:42:39 AM,9,1,7,58,58
74456,16th St& Rhode Island St SW-NS/SI,16STRIS0,,7761,37.765994,-122.402856,,KANSAS ST,16TH ST,,,BZ,0,1729767266000,15738876,147,10,POINT (-122.402856 37.765994),11/02/2024 08:47:21 PM,11/04/2024 09:42:39 AM,1,9,4,54,54
74208,Jones St&Sutter St NW-NS/BZ,JONESUT0,JONESUTT,5187,37.788689999999995,-122.41361,,SUTTER ST,JONES ST,NS,NW,BZ,1,1729767266000,15732608,147,3,POINT (-122.41361 37.78869),11/02/2024 08:47:21 PM,11/04/2024 09:42:39 AM,6,3,21,50,50
73378,Diamond St&Arbor St E-MI/SB,DIAMARB1,DIAMARBR,4382,37.738681,-122.434468,,ARBOR ST,DIAMOND ST,MI,EA,FL,0,1729767266000,15729447,147,8,POINT (-122.434468 37.738681),11/02/2024 08:47:21 PM,11/04/2024 09:42:39 AM,9,5,10,96,96
72765,Balboa St&Park Presidio Blvd SW-NS,BBOAPKP1,BBOAPKPR,3071,37.776787999999996,-122.472411,,PARK PRESIDIO BLVD,BALBOA ST,NS,SW,BZ,1,1729767266000,15727718,147,1,POINT (-122.472411 37.776788),11/02/2024 08:47:21 PM,11/04/2024 09:42:39 AM,8,4,29,5,5
75844,Lombard St&Fillmore St SE-FS/BZ,LOMBFIL1,LOMBFILL,5274,37.799817999999995,-122.435878,,WEBSTER ST,LOMBARD ST,NS,SW,BZ,0,1729767266000,15735507,147,2,POINT (-122.435878 37.799818),11/02/2024 08:47:21 PM,11/04/2024 09:42:39 AM,4,6,13,15,15
73435,Castro St&25TH St SE-NS/BZ,CTRO25S1,CTRO25ST,4329,37.7496,-122.43383,,25TH ST,CASTRO ST,NS,SE,BZ,0,1729767266000,15729987,147,8,POINT (-122.43383 37.7496),11/02/2024 08:47:21 PM,11/04/2024 09:42:39 AM,3,5,22,84,84
73017,Cesar Chavez St&Folsom St NW-FS/BB,CHAVFOL0,CHAVFOLS,3931,37.74834,-122.41398,,FOLSOM ST,ARMY ST,FS,NW,BZ,0,1729767266000,15728435,147,9,POINT (-122.41398 37.74834),11/02/2024 08:47:21 PM,11/04/2024 09:42:39 AM,3,2,20,53,53
75735,16th Ave&Lawton St NW-NS/PS,16AVLAW0,16AVLAWT,3273,37.7593,-122.47370000000001,,LAWTON ST,16TH AVE,NS,NW,FL,0,1729767266000,15733936,147,7,POINT (-122.4737 37.7593),11/02/2024 08:47:21 PM,11/04/2024 09:42:39 AM,10,8,14,44,44
73279,Fulton St&Clayton St SE-FS/BZ,FULTCLT1,FULTCLTN,4226,37.775369999999995,-122.44928999999999,,CLAYTON ST,FULTON ST,FS,SE,BZ,0,1729767266000,15729555,147,5,POINT (-122.44929 37.77537),11/02/2024 08:47:21 PM,11/04/2024 09:42:39 AM,7,11,18,24,24
74261,Paul Ave&San Bruno Ave N-MB/SB,PAULSBR1,PAULSBRO,5904,37.723879,-122.401576,,SAN BRUNO AVE,PAUL AVE,MB,NO,,0,1729767266000,15732783,147,9,POINT (-122.401576 37.723879),11/02/2024 08:47:21 PM,11/04/2024 09:42:39 AM,2,2,25,91,91
73005,Clay St&Front St SE-FS/BZ,CLAYFRN0,CLAYFRNT,4017,37.795116,-122.399101,1,FRONT ST,CLAY ST,FS,SE,BZ,0,1729767266000,15728356,147,3,POINT (-122.399101 37.795116),11/02/2024 08:47:21 PM,11/04/2024 09:42:39 AM,6,3,8,108,108
73013,46th Ave&Quintara St SE-NS/PS,46AVQUI1,46AVQUIN,3593,37.747288,-122.504928,,QUINTARA ST,46TH AVE,NS,SE,,0,1729767266000,15728396,147,4,POINT (-122.504928 37.747288),11/02/2024 08:47:21 PM,11/04/2024 09:42:39 AM,10,7,35,39,39
75345,California St&Leavenworth St S-MI,CALILEA1,CALILEAV,3878,37.791132999999995,-122.415749,,LEAVENWORTH ST,CALIFORNIA ST,MI,SO,,0,1729767266000,15736607,147,3,POINT (-122.415749 37.791133),11/02/2024 08:47:21 PM,11/04/2024 09:42:39 AM,6,3,21,16,16
74763,Panorama Dr&Starview Way SE-NS/SB,PNRMSTV1,PNRMSTVW,5982,37.749264,-122.45203000000001,,STARVIEW WAY,PANORAMA DR,NS,SE,,0,1729767266000,15736035,147,7,POINT (-122.45203 37.749264),11/02/2024 08:47:21 PM,11/04/2024 09:42:39 AM,7,8,38,48,48
74695,Pacific Ave&Stockton St NW-FS/BZ,PACFST03,,7737,37.796734,-122.408581,,CORDELIA ST,PACIFIC AVE,,,,0,1729767266000,15739046,147,3,POINT (-122.408581 37.796734),11/02/2024 08:47:21 PM,11/04/2024 09:42:39 AM,6,3,6,104,104
73080,Clipper St&Portola Dr S-FS,CLIPPORT,CLPRPORT,4072,37.746700000000004,-122.44500000000001,,PORTOLA DR,DIAMOND HEIGHTS BL,FS,SO,,0,1729767266000,15728915,147,8,POINT (-122.445 37.7467),11/02/2024 08:47:21 PM,11/04/2024 09:42:39 AM,9,5,22,57,57
74903,Forest Hill Station Outbound,FHS....0,FHS.....,6993,37.74817,-122.459192,,METRO TUNNEL,FOREST HILL STATION,,,,0,1729767266000,15733116,147,7,POINT (-122.459192 37.74817),11/02/2024 08:47:21 PM,11/04/2024 09:42:39 AM,10,8,41,45,45
73138,Church St&18TH St NW-NS/SI,CHUR18S0,CHUR18ST,3987,37.761466999999996,-122.428416,,18TH ST,CHURCH ST,NS,NW,,0,1729767266000,15729152,147,8,POINT (-122.428416 37.761467),11/02/2024 08:47:21 PM,11/04/2024 09:42:39 AM,3,5,5,37,37
74879,Steiner St&Green St SE-NS/PS,STEIGRE1,STEIGREN,6487,37.795859,-122.436863,,GREEN ST,STEINER ST,NS,SE,,0,1729767266000,15736131,147,2,POINT (-122.436863 37.795859),11/02/2024 08:47:21 PM,11/04/2024 09:42:39 AM,4,6,13,102,102
73817,Howth St&Geneva Ave W-FS,HOWTGNV0,HOWTGNVA,5038,37.72193,-122.45027999999999,,GENEVA AVE,HOWTH ST,FS,WE,FL,0,1729767266000,15730785,147,11,POINT (-122.45028 37.72193),11/02/2024 08:47:21 PM,11/04/2024 09:42:39 AM,10,1,24,81,81
75112,Sagamore St&Capitol Ave SW-NS,SAGACAP1,SAGACAPI,6323,37.71129,-122.45913,,CAPITOL AVE,SAGAMORE ST,NS,SW,FL,0,1729767266000,15734879,147,11,POINT (-122.45913 37.71129),11/02/2024 08:47:21 PM,11/04/2024 09:42:39 AM,10,1,24,81,81
73208,Clayton St&Parnassus Ave NW-NS/PS,CLTNPAR0,CLTNPARN,4082,37.765226,-122.447757,,PARNASSUS AVE,CLAYTON ST,NS,NW,,0,1729767266000,15728925,147,8,POINT (-122.447757 37.765226),11/02/2024 08:47:21 PM,11/04/2024 09:42:39 AM,7,11,3,29,29
72998,Ashbury St&Clayton St SE-FS/PS,ASHBCLT1,ASHBCLTN,3659,37.762978,-122.446805,,CLAYTON ST,ASHBURY ST,FS,SE,,0,1729767266000,15728340,147,8,POINT (-122.446805 37.762978),11/02/2024 08:47:21 PM,11/04/2024 09:42:39 AM,7,5,3,112,112
73923,US Post Office N-NS/SB,MENDUSP0,MENDUSPO,5510,37.741056,-122.384679,,EVANS AVE,MENDELL ST,NS,NO,,0,1729767266000,15731503,147,10,POINT (-122.384679 37.741056),11/02/2024 08:47:21 PM,11/04/2024 09:42:39 AM,2,9,1,76,76
74624,25th Ave&Geary Blvd SE-NS/BZ,25AVGEA0,25AVGEAR,3501,37.779925,-122.484619,,GEARY BLVD,25TH AVE,NS,SE,BZ,0,1729767266000,15734393,147,1,POINT (-122.484619 37.779925),11/02/2024 08:47:21 PM,11/04/2024 09:42:39 AM,8,4,29,8,8
75026,Lincoln Way&Funston Ave NW-FS/BZ,LWAYFUN0,LWAYFUNS,5326,37.765813,-122.471032,,FUNSTON AVE,LINCOLN WY,FS,NW,BZ,0,1729767266000,15733257,147,7,POINT (-122.471032 37.765813),11/02/2024 08:47:21 PM,11/04/2024 09:42:39 AM,10,11,12,9,9
75529,Myra Way&Dalewood Way N-NS/BZ,MYRADLW1,MYRADLWD,5452,37.736709999999995,-122.453794,,DALEWOOD WAY,MYRA WAY,NS,NO,BZ,1,1729767266000,15735227,147,7,POINT (-122.453794 37.73671),11/02/2024 08:47:21 PM,11/04/2024 09:42:39 AM,9,8,41,117,117
73532,Fulton St&30TH Ave SE-FS/BZ,FULT30A1,FULT30AV,4753,37.77224,-122.48919000000001,,30TH AVE,FULTON ST,FS,SE,FL,0,1729767266000,15729873,147,1,POINT (-122.48919 37.77224),11/02/2024 08:47:21 PM,11/04/2024 09:42:39 AM,8,4,12,9,9
74583,Oakdale Ave&Toland St NE-NS/PS,OAKDTOLD,,8003,37.740966,-122.401416,,TOLAND ST,OAKDALE AVE,,,,0,1729767266000,15738953,147,10,POINT (-122.401416 37.740966),11/02/2024 08:47:21 PM,11/04/2024 09:42:39 AM,2,9,1,85,85
75603,Parnassus Ave&4th Ave NE-NS/BZ,PARN 4A0,PARN 4AV,5885,37.762727,-122.46074,,4TH AVE,PARNASSUS AVE,NS,NE,BZ,1,1729767266000,15733787,147,7,POINT (-122.46074 37.762727),11/02/2024 08:47:21 PM,11/04/2024 09:42:39 AM,7,11,14,109,109
74563,Lawton St&7th Ave NW-FS/PS,LAWT 7A1,LAWT 7AV,4852,37.758604999999996,-122.464086,,7TH AVE,LAWTON ST,FS,NW,,1,1729767266000,15737412,147,7,POINT (-122.464086 37.758605),11/02/2024 08:47:21 PM,11/04/2024 09:42:39 AM,10,8,14,109,109
73041,California St&Taylor St SW-NS,CALITAY1,CALITAYL,3902,37.791543,-122.412608,,TAYLOR ST,CALIFORNIA ST,NS,SW,,1,1729767266000,15728796,147,3,POINT (-122.412608 37.791543),11/02/2024 08:47:21 PM,11/04/2024 09:42:39 AM,6,3,21,16,16
75202,Post St&Hyde St SE-FS/BZ,POSTHYD1,POSTHYDE,6126,37.78724,-122.41626,,HYDE ST,POST ST,FS,SE,BZ,0,1729767266000,15734924,147,3,POINT (-122.41626 37.78724),11/02/2024 08:47:21 PM,11/04/2024 09:42:39 AM,6,10,36,50,50
74378,Market St&Hyde St N-NS/BZ,MRKTHYD3,,7423,37.778784,-122.414723,1,HYDE ST,MARKET ST,,,,0,1729767266000,15738770,147,6,POINT (-122.414723 37.778784),11/02/2024 08:47:21 PM,11/04/2024 09:42:39 AM,5,10,36,21,21
74681,Mission St&20th St SW-FS/BZ,MISS20S0,MISS20ST,5558,37.75817,-122.41909,,20TH ST,MISSION ST,FS,SW,BZ,1,1729767266000,15737482,147,9,POINT (-122.41909 37.75817),11/02/2024 08:47:21 PM,11/04/2024 09:42:39 AM,3,2,20,53,53
74064,Pacific Ave&Powell St SW-NS/PS,PACFPOW0,PACFPOWL,5853,37.796405,-122.410175,,POWELL ST,PACIFIC AVE,NS,SW,,0,1729767266000,15731855,147,3,POINT (-122.410175 37.796405),11/02/2024 08:47:21 PM,11/04/2024 09:42:39 AM,6,3,6,16,16
75519,Sutter St&Laguna St SW-NS/BZ,SUTTLGN1,SUTTLGNA,6600,37.786646999999995,-122.428457,,LAGUNA ST,SUTTER ST,NS,SW,BZ,1,1729767266000,15733736,147,5,POINT (-122.428457 37.786647),11/02/2024 08:47:21 PM,11/04/2024 09:42:39 AM,4,11,15,101,101
75119,Union St&Taylor St SW-NS/PS,UNINTAY1,UNINTAYL,6785,37.799743,-122.41422,,TAYLOR ST,UNION ST,NS,SW,,0,1729767266000,15734913,147,3,POINT (-122.41422 37.799743),11/02/2024 08:47:21 PM,11/04/2024 09:42:39 AM,6,3,32,107,107
73855,Grove St&Van Ness Ave SE-FS/BZ,GROVV.N1,GROVV.N.,4923,37.778188,-122.419743,,GROVE ST,GROVE ST,FS,SE,BZ,0,1729767266000,15730921,147,5,POINT (-122.419743 37.778188),11/02/2024 08:47:21 PM,11/04/2024 09:42:39 AM,4,10,36,21,21
73827,Haight St&Stanyan St SE-FS/BB,HAITSTA3,HAITSTAN,4963,37.769169999999995,-122.453075,,STANYAN ST,HAIGHT ST,FS,SE,BZ,1,1729767266000,15730811,147,5,POINT (-122.453075 37.76917),11/02/2024 08:47:21 PM,11/04/2024 09:42:39 AM,7,11,3,25,25
74233,Presidio Ave&Geary Blvd NE-FS/BZ,PRESGEA1,PRESGEAR,6092,37.782706,-122.445796,,GEARY BLVD,PRESIDIO AVE,FS,NE,BZ,0,1729767266000,15732695,147,2,POINT (-122.445796 37.782706),11/02/2024 08:47:21 PM,11/04/2024 09:42:39 AM,8,6,31,103,103
74762,4th Street & King Street SE-NS/SI,4ST KING,4ST KING,7166,37.776278,-122.39386400000001,1,KING ST,4TH ST,MB,,SI,0,1729767266000,15736024,147,6,POINT (-122.393864 37.776278),11/02/2024 08:47:21 PM,11/04/2024 09:42:39 AM,1,10,4,34,34
75616,Quintara St&33rd Ave NE-NS,QUIN33A0,QUIN33AV,6156,37.74805,-122.49095,,33RD AVE,QUINTARA ST,NS,NE,,0,1729767266000,15733834,147,4,POINT (-122.49095 37.74805),11/02/2024 08:47:21 PM,11/04/2024 09:42:39 AM,10,7,35,39,39
74941,Portola Dr&Burnett Ave N-NS/SB,PORTBRNT,PORTBRNT,6010,37.747033,-122.44487,1,BURNETT AVE,PORTOLA DR,NS,NO,,0,1729767266000,15736177,147,8,POINT (-122.44487 37.747033),11/02/2024 08:47:21 PM,11/04/2024 09:42:39 AM,9,5,38,48,48
74766,Polk St&Francisco St NW-NS/BZ,POLKFNC0,POLKFNCO,5988,37.803529999999995,-122.42341,,FRANCISCO ST,POLK ST,NS,NW,BZ,0,1729767266000,15736038,147,2,POINT (-122.42341 37.80353),11/02/2024 08:47:21 PM,11/04/2024 09:42:39 AM,4,6,32,107,107
75479,Innes Ave&Hunters Point Blvd W-NS,INESH P0,INESH P,5104,37.732709,-122.377172,,HUNTERS POINT BLVD,INNES AVE,NS,WE,,0,1729767266000,15738226,147,10,POINT (-122.377172 37.732709),11/02/2024 08:47:21 PM,11/04/2024 09:42:39 AM,2,9,1,78,78
73032,California St&10TH Ave SW-NS/BZ,CALI10A1,CALI10AV,3830,37.784551,-122.468963,1,10TH AVE,CALIFORNIA ST,NS,SW,BZ,0,1729767266000,15728770,147,1,POINT (-122.468963 37.784551),11/02/2024 08:47:21 PM,11/04/2024 09:42:39 AM,8,4,11,5,5
72942,18th St&Diamond St SW-NS/BZ,18STDIA0,18STDIAM,3329,37.760701999999995,-122.437294,,DIAMOND ST,18TH ST,NS,SW,BZ,1,1729767266000,15728587,147,8,POINT (-122.437294 37.760702),11/02/2024 08:47:21 PM,11/04/2024 09:42:39 AM,3,5,5,115,115
75653,Powell St&Francisco St SE-NS/BZ,POWLFNC1,POWLFNCO,6056,37.80477,-122.41166,,FRANCISCO ST,POWELL ST,NS,SE,BZ,1,1729767266000,15736882,147,3,POINT (-122.41166 37.80477),11/02/2024 08:47:21 PM,11/04/2024 09:42:39 AM,6,3,23,106,106
72919,Bosworth St&Milton St NE-NS/PS,BOSWMIL0,BOSWMILT,3701,37.733487,-122.429326,,MILTON ST,BOSWORTH ST,NS,NE,,0,1729767266000,15728513,147,8,POINT (-122.429326 37.733487),11/02/2024 08:47:21 PM,11/04/2024 09:42:39 AM,9,5,28,93,93
75060,Sunset Blvd&Rivera St SE-NS/SB,SUNSRVR1,SUNSRVRA,6550,37.745838,-122.494604,,RIVERA ST,SUNSET BLVD,NS,SE,,0,1729767266000,15734821,147,4,POINT (-122.494604 37.745838),11/02/2024 08:47:21 PM,11/04/2024 09:42:39 AM,10,7,35,40,40
75328,Cesar Chavez St&Harrison St SW-NS,CHAVHAR1,CHAVHARR,3934,37.748200000000004,-122.41163,,HARRISON ST,CESAR CHAVEZ ST,NS,SW,BZ,0,1729767266000,15735103,147,9,POINT (-122.41163 37.7482),11/02/2024 08:47:21 PM,11/04/2024 09:42:39 AM,3,2,2,83,83
75157,Santos St&Brookdale Ave NW-NS/BZ,SANTBRO0,SANTBROK,6339,37.71203,-122.41878,1,SUNNYDALE AVE,SANTOS ST,FS,EA,,0,1729767266000,15737961,147,10,POINT (-122.41878 37.71203),11/02/2024 08:47:21 PM,11/04/2024 09:42:39 AM,9,9,40,74,74
74253,Woolsey St&Hamilton St SW-NS,WLSYHMT1,WLSYHMTN,6979,37.72362,-122.40863999999999,,HAMILTON ST,WOOLSEY ST,NS,SW,FL,0,1729767266000,15732758,147,9,POINT (-122.40864 37.72362),11/02/2024 08:47:21 PM,11/04/2024 09:42:39 AM,2,2,25,91,91
73108,30th Ave&Santiago St NW-NS/PS,30AVSNT0,30AVSNTG,3530,37.74451,-122.48765,,SANTIAGO ST,30TH AVE,NS,NW,FL,0,1729767266000,15728682,147,4,POINT (-122.48765 37.74451),11/02/2024 08:47:21 PM,11/04/2024 09:42:39 AM,10,7,35,40,40
73542,Eucalyptus Dr&Junipero Serra Blvd SW-NS/PS,EUCAJ.S0,EUCAJ.S.,4546,37.730987999999996,-122.472442,,JUNIPERO SERRA BLVD,EUCALYPTUS DR,NS,SW,,0,1729767266000,15730188,147,7,POINT (-122.472442 37.730988),11/02/2024 08:47:21 PM,11/04/2024 09:42:39 AM,10,8,41,41,41
72916,Bosworth St&Lippard Ave NE-NS/PS,BOSWLIP1,BOSWLIPP,3698,37.733925,-122.435706,,LIPPARD AVE,BOSWORTH ST,NS,NE,,0,1729767266000,15728508,147,8,POINT (-122.435706 37.733925),11/02/2024 08:47:21 PM,11/04/2024 09:42:39 AM,9,5,10,96,96
75344,Winston Dr&20th Ave SE-FS/BZ,WINS20A1,WINS20AV,6951,37.726883,-122.475739,,20TH AVE,WINSTON DR,FS,SE,BZ,0,1729767266000,15736603,147,7,POINT (-122.475739 37.726883),11/02/2024 08:47:21 PM,11/04/2024 09:42:39 AM,10,8,16,41,41
74030,Mission St&Silver Ave S-NS/BZ,MISSSIL1,MISSSILV,5620,37.728722999999995,-122.43132,,SILVER AVE,MISSION ST,NS,SO,BZ,1,1729767266000,15731576,147,11,POINT (-122.43132 37.728723),11/02/2024 08:47:21 PM,11/04/2024 09:42:39 AM,9,1,28,94,94
73780,Lombard St&Laguna St SE-FS/SB,LOMBLGN0,LOMBLGNA,5281,37.800442,-122.430937,1,OCTAVIA ST,LOMBARD ST,NS,SW,,0,1729767266000,15731066,147,2,POINT (-122.430937 37.800442),11/02/2024 08:47:21 PM,11/04/2024 09:42:39 AM,4,6,13,15,15
74101,Church St&Day St SW-FS/SI,CHURDAY0,CHURDAY,4004,37.742810999999996,-122.426654,,DAY ST,CHURCH ST,FS,SW,SI,0,1729767266000,15732460,147,8,POINT (-122.426654 37.742811),11/02/2024 08:47:21 PM,11/04/2024 09:42:39 AM,9,5,22,84,84
75662,Right Of Way&18th St SE-NS/SB,ROW 18S1,ROW 18ST,6213,37.761192,-122.428184,,18TH ST,MUNI RAIL - J RROW,NS,SE,,0,1729767266000,15736913,147,8,POINT (-122.428184 37.761192),11/02/2024 08:47:21 PM,11/04/2024 09:42:39 AM,3,5,5,37,37
73306,California St&Sansome St NE-NS,CALISAN0,CALISANS,3894,37.793144999999996,-122.400982,,SANSOME ST,CALIFORNIA ST,NS,NE,,1,1729767266000,15729609,147,3,POINT (-122.400982 37.793145),11/02/2024 08:47:21 PM,11/04/2024 09:42:39 AM,6,3,8,108,108
74016,Lyon St&Greenwich St SW-FS/BZ,LYONGNW0,LYONGNWH,5331,37.797428,-122.447206,,GREENWICH ST,LYON ST,FS,SW,BZ,1,1729767266000,15731753,147,2,POINT (-122.447206 37.797428),11/02/2024 08:47:21 PM,11/04/2024 09:42:39 AM,4,6,27,14,14
74099,Richardson Ave&Francisco St NW-NS,RCHNFNC1,RCHNFNCO,6181,37.800408,-122.447447,1,FRANCISCO ST,RICHARDSON AVE,NS,NW,BZ,1,1729767266000,15732452,147,2,POINT (-122.447447 37.800408),11/02/2024 08:47:21 PM,11/04/2024 09:42:39 AM,4,6,13,17,17
75171,Folsom St&2ND St E-NS/BI,FOLS 2ST,FOLS 2ST,7024,37.785461,-122.39678,,DOW PL,02ND ST,FS,EA,SI,0,1729767266000,15738012,147,6,POINT (-122.39678 37.785461),11/02/2024 08:47:21 PM,11/04/2024 09:42:39 AM,1,10,8,32,32
74475,Miguel ST&Laidley ST W-MI/SB,MIGLLAI0,,7867,37.737761,-122.428294,,LAIDLEY ST,MIGUEL ST,,,,0,1729767266000,15738905,147,8,POINT (-122.428294 37.737761),11/02/2024 08:47:21 PM,11/04/2024 09:42:39 AM,9,5,10,59,59
73533,The Embarcadero&Townsend St W-MB,EMBRTOW1,EMBRTOWN,4531,37.7836,-122.38832,1,TOWNSEND ST,THE EMBARCADERO,MB,WE,,0,1729767266000,15730167,147,6,POINT (-122.38832 37.7836),11/02/2024 08:47:21 PM,11/04/2024 09:42:39 AM,1,10,8,31,31
75411,Quintara St&35th Ave SW-NS,QUIN35A1,QUIN35AV,6159,37.74783,-122.49334,,35TH AVE,QUINTARA ST,NS,SW,,0,1729767266000,15733596,147,4,POINT (-122.49334 37.74783),11/02/2024 08:47:21 PM,11/04/2024 09:42:39 AM,10,7,35,40,40
73722,Judah St&25th Ave NE-NS/SI,JUDA25A0,JUDA25AV,5203,37.761452,-122.4833,1,25TH AVE,JUDAH ST,NS,NE,SI,0,1729767266000,15730396,147,4,POINT (-122.4833 37.761452),11/02/2024 08:47:21 PM,11/04/2024 09:42:39 AM,10,7,35,39,39
74922,Turk St&Leavenworth St NW-FS/BZ,TURKLEA0,TURKLEAV,6721,37.782835,-122.41421700000001,,LEAVENWORTH ST,TURK ST,FS,NW,BZ,1,1729767266000,15734643,147,5,POINT (-122.414217 37.782835),11/02/2024 08:47:21 PM,11/04/2024 09:42:39 AM,5,10,36,20,20
74376,9th ST & AVE D SW-NS/PS,.9THAVED,,7560,37.824083,-122.372828,,9TH TI ST,AVENUE D,NS,SW,PS,0,1729767266000,15738764,147,6,POINT (-122.372828 37.824083),11/02/2024 08:47:21 PM,11/04/2024 09:42:39 AM,1,10,37,36,36
75642,Stockton St&Sutter St NE-FS/BB,STOKSUT0,STOKSUTT,6523,37.79013,-122.40705,1,STOCKTON ST,SUTTER ST,FS,NE,BB,0,1729767266000,15735387,147,3,POINT (-122.40705 37.79013),11/02/2024 08:47:21 PM,11/04/2024 09:42:39 AM,6,3,8,19,19
74024,Ocean Ave&Fairfield Way NW-FS/SI,OCENFFL1,OCENFFLD,5788,37.726008,-122.464072,2,FAIRFIELD WAY,OCEAN AVE,FS,NW,SI,0,1729767266000,15731546,147,7,POINT (-122.464072 37.726008),11/02/2024 08:47:21 PM,11/04/2024 09:42:39 AM,10,8,41,68,68
73037,California St&Grant Ave S-MI,CALIGRN1,CALIGRNT,3866,37.792379,-122.405935,,GRANT AVE,CALIFORNIA ST,MI,SO,,1,1729767266000,15728788,147,3,POINT (-122.405935 37.792379),11/02/2024 08:47:21 PM,11/04/2024 09:42:39 AM,6,3,8,104,104
74398,Quintara St&41st Ave SW-NS,QUIN41A1,QUIN41AV,6163,37.74754,-122.49981,,41ST AVE,QUINTARA ST,NS,SW,,0,1729767266000,15734214,147,4,POINT (-122.49981 37.74754),11/02/2024 08:47:21 PM,11/04/2024 09:42:39 AM,10,7,35,39,39
74837,Starr King Way&Gough St SE-FS/BZ,SKNGGOU1,SKNGGOUG,6425,37.78505,-122.42408499999999,1,GOUGH ST,STARR KING WAY,FS,SE,BZ,0,1729767266000,15734580,147,2,POINT (-122.424085 37.78505),11/02/2024 08:47:21 PM,11/04/2024 09:42:39 AM,4,11,39,100,100
74262,Grafton Ave&Jules Ave NE-NS/SB,GRAFJUL1,,7195,37.720095,-122.461111,,JULES AVE,GRAFTON AVE,,NE,,0,1729767266000,15732785,147,11,POINT (-122.461111 37.720095),11/02/2024 08:47:21 PM,11/04/2024 09:42:39 AM,10,1,24,64,64
73278,Fulton St&Arguello Blvd SE-FS/BZ,FULTARG1,FULTARGL,4224,37.774282,-122.45800299999999,,ARGUELLO BLVD,FULTON ST,FS,SE,BZ,0,1729767266000,15729548,147,1,POINT (-122.458003 37.774282),11/02/2024 08:47:21 PM,11/04/2024 09:42:39 AM,8,4,12,9,9
73169,Geary Blvd&39TH Ave SW-NS/BZ,GEAR39A1,GEAR39AV,4283,37.779286,-122.499829,1,39TH AVE,GEARY BLVD,NS,SW,BZ,0,1729767266000,15729221,147,1,POINT (-122.499829 37.779286),11/02/2024 08:47:21 PM,11/04/2024 09:42:39 AM,8,4,29,8,8
72983,20th St&3rd St NW-FS/BZ,20ST.3S1,20ST.3ST,3410,37.760535999999995,-122.388707,,03RD ST,20TH ST,FS,NW,BZ,0,1729767266000,15728314,147,10,POINT (-122.388707 37.760536),11/02/2024 08:47:21 PM,11/04/2024 09:42:39 AM,2,9,26,55,55
74832,Steiner St&California St NW-NS/BZ,STEICAL0,STEICALI,6486,37.78884,-122.43561,1,CALIFORNIA ST,STEINER ST,NS,NW,BZ,0,1729767266000,15734571,147,2,POINT (-122.43561 37.78884),11/02/2024 08:47:21 PM,11/04/2024 09:42:39 AM,4,6,30,102,102
74711,Chestnut St&Gough St NE-NS/BZ,CHESGOU2,,7857,37.801914,-122.427955,,GOUGH ST,CHESTNUT ST,,,,0,1729767266000,15739080,147,2,POINT (-122.427955 37.801914),11/02/2024 08:47:21 PM,11/04/2024 09:42:39 AM,4,6,13,17,17
74917,Portola Dr&Diamond Hts Bl SE-FS/BZ,PORTCLPR,PORTCLPR,6012,37.74715,-122.44420000000001,1,DIAMOND HEIGHTS BL,PORTOLA DR,FS,SE,,0,1729767266000,15733179,147,8,POINT (-122.4442 37.74715),11/02/2024 08:47:21 PM,11/04/2024 09:42:39 AM,3,5,22,51,51
72696,19th Ave&Junipero Serra Blvd W-NS,19AVJ S0,19AVJ S,3363,37.717323,-122.47297,1,JUNIPERO SERRA BLVD,19TH AVE,NS,WE,FL,0,1729767266000,15727383,147,7,POINT (-122.47297 37.717323),11/02/2024 08:47:21 PM,11/04/2024 09:42:39 AM,10,8,16,42,42
73579,Font Blvd&Tapia Dr E-NS/SB,FONTTAP1,FONTTAPI,4712,37.72068,-122.480902,,TAPIA DR,FONT BLVD,NS,EA,,0,1729767266000,15730253,147,7,POINT (-122.480902 37.72068),11/02/2024 08:47:21 PM,11/04/2024 09:42:39 AM,10,8,16,42,42
75370,Ulloa St&Forest Side Ave SW-NS,ULOAFRS1,ULOAFRSD,6737,37.741434999999996,-122.4688,,FOREST SIDE AVE,ULLOA ST,NS,SW,,0,1729767266000,15738125,147,7,POINT (-122.4688 37.741435),11/02/2024 08:47:21 PM,11/04/2024 09:42:39 AM,10,8,41,46,46
75774,3rd St&Mission Rock St SW-FS,3ST MRS1,3ST MRS1,7359,37.772832,-122.38971699999999,1,MISSION ROCK ST,3RD ST,FS,SW,SI,0,1729767266000,15736966,147,6,POINT (-122.389717 37.772832),11/02/2024 08:47:21 PM,11/04/2024 09:42:39 AM,1,10,4,34,34
74249,17th St&Clayton St NE-NS/PS,17STCLTN,17STCLTN,3309,37.761854,-122.446702,,CLAYTON ST,17TH ST,NS,NE,,0,1729767266000,15732752,147,8,POINT (-122.446702 37.761854),11/02/2024 08:47:21 PM,11/04/2024 09:42:39 AM,7,5,3,112,112
75509,King St&2nd St W-FS/SB,KING.2S2,KING.2ST,5236,37.7798,-122.38994,1,02ND ST,KING ST,FS,WE,,0,1729767266000,15733709,147,6,POINT (-122.38994 37.7798),11/02/2024 08:47:21 PM,11/04/2024 09:42:39 AM,1,10,4,31,31
75621,Sunset Blvd&Judah St NW-NS/SB,SUNSJUD0,SUNSJUDA,6529,37.761005999999995,-122.495851,,JUDAH ST,SUNSET BLVD,NS,NW,,1,1729767266000,15735319,147,4,POINT (-122.495851 37.761006),11/02/2024 08:47:21 PM,11/04/2024 09:42:39 AM,10,7,35,39,39
75510,Newcomb Ave&Keith St S-FS/SB,NEWCKET0,NEWCKETH,5487,37.733000000000004,-122.386049,,KEITH ST,NEWCOMB AVE,FS,SO,,0,1729767266000,15733715,147,10,POINT (-122.386049 37.733),11/02/2024 08:47:21 PM,11/04/2024 09:42:39 AM,2,9,1,86,86
72708,24th St&Potrero Ave NW-FS/BZ,24STPOT0,24STPOTR,3480,37.75299,-122.40669,,POTRERO AVE,24TH ST,FS,NW,BZ,0,1729767266000,15727471,147,9,POINT (-122.40669 37.75299),11/02/2024 08:47:21 PM,11/04/2024 09:42:39 AM,3,2,20,53,53
74252,Presidio Ave&Sutter St SW-FS/BZ,PRESSUT0,PRESSUTT,6099,37.784392,-122.44628900000001,,SUTTER ST,PRESIDIO AVE,FS,SW,BZ,1,1729767266000,15732757,147,2,POINT (-122.446289 37.784392),11/02/2024 08:47:21 PM,11/04/2024 09:42:39 AM,8,6,31,11,11
73250,925 Corbett Ave E-FS/PS,CRBTH925,CRBTH925,4169,37.752083,-122.443414,,,CORBETT AVE,FS,EA,,1,1729767266000,15729052,147,8,POINT (-122.443414 37.752083),11/02/2024 08:47:21 PM,11/04/2024 09:42:39 AM,7,5,38,51,51
75674,Ashbury St&Frederick St NW-NS/BZ,ASHBFRE0,,7295,37.767305,-122.446473,,FREDERICK ST,ASHBURY ST,,,,0,1729767266000,15736947,147,5,POINT (-122.446473 37.767305),11/02/2024 08:47:21 PM,11/04/2024 09:42:39 AM,7,11,3,25,25
75874,Geary Blvd&Arguello Blvd NW-FS/BB,GEARARG2,,7854,37.781313,-122.458955,1,02ND AVE,GEARY BLVD,,,,0,1729767266000,15739142,147,1,POINT (-122.458955 37.781313),11/02/2024 08:47:21 PM,11/04/2024 09:42:39 AM,8,4,11,5,5
73409,Divisadero St&North Point St NW-NS,DIVIN P0,DIVIN PT,4430,37.802844,-122.443514,,NORTH POINT ST,DIVISADERO ST,NS,NW,,0,1729767266000,15729488,147,2,POINT (-122.443514 37.802844),11/02/2024 08:47:21 PM,11/04/2024 09:42:39 AM,4,6,13,17,17
74144,Orizaba Ave&Broad St NW-NS/PS,ORIZBRO0,ORIZBROD,5825,37.713328,-122.462585,,BROAD ST,ORIZABA AVE,NS,NW,,0,1729767266000,15732290,147,11,POINT (-122.462585 37.713328),11/02/2024 08:47:21 PM,11/04/2024 09:42:39 AM,10,1,24,65,65
73299,Divisadero St&Sutter St SW-FS/BZ,DIVISUTT,SUTTTERM,4435,37.78515,-122.439939,,SUTTER ST,DIVISADERO ST,FS,SW,BZ,0,1729767266000,15729594,147,5,POINT (-122.439939 37.78515),11/02/2024 08:47:21 PM,11/04/2024 09:42:39 AM,4,11,15,103,103
75494,Union St&Larkin St SE-FS/BZ,UNINLAR1,UNINLARK,6767,37.79895,-122.42052699999999,,LARKIN ST,UNION ST,FS,SE,BZ,0,1729767266000,15738305,147,3,POINT (-122.420527 37.79895),11/02/2024 08:47:21 PM,11/04/2024 09:42:39 AM,6,3,32,107,107
75591,Palou Ave&Crisp Ave N-FS/PS,PALUCPA1,PALUCPAV,5865,37.727982,-122.380189,,CRISP RD,PALOU AVE,FS,NO,,0,1729767266000,15738389,147,10,POINT (-122.380189 37.727982),11/02/2024 08:47:21 PM,11/04/2024 09:42:39 AM,2,9,1,78,78
72949,Bryant St&4TH St S-NS/PS,BRYT 4S1,BRYT 4ST,3723,37.779002999999996,-122.398667,,04TH ST,BRYANT ST,NS,SO,,0,1729767266000,15728594,147,6,POINT (-122.398667 37.779003),11/02/2024 08:47:21 PM,11/04/2024 09:42:39 AM,1,10,34,32,32
73963,Lincoln Way&La Playa St SW-NS/PS,LWAYLAP0,LWAYLAPL,5329,37.763926,-122.50957,,LA PLAYA ST,LINCOLN WY,NS,SW,,1,1729767266000,15731221,147,4,POINT (-122.50957 37.763926),11/02/2024 08:47:21 PM,11/04/2024 09:42:39 AM,10,7,35,39,39
74241,19th Ave&Taraval St NE-FS/BB,19AVTAR1,19AVTARA,3394,37.74331,-122.47554,1,TARAVAL ST,19TH AVE,FS,NE,BZ,1,1729767266000,15732721,147,7,POINT (-122.47554 37.74331),11/02/2024 08:47:21 PM,11/04/2024 09:42:39 AM,10,8,41,44,44
73508,Grafton Ave&Plymouth Ave SW-NS/PS,GRAFPLY0,GRAFPLYM,4915,37.719961999999995,-122.456232,,PLYMOUTH AVE,GRAFTON AVE,NS,SW,,1,1729767266000,15729794,147,11,POINT (-122.456232 37.719962),11/02/2024 08:47:21 PM,11/04/2024 09:42:39 AM,10,1,24,64,64
75920,Crissy Field Terminal S/BB,CRFD.TC2,,8150,37.802755,-122.461705,,,,,,,0,1729767266000,15739281,147,2,POINT (-122.461705 37.802755),11/02/2024 08:47:21 PM,11/04/2024 09:42:39 AM,,6,27,3,3
74872,Plymouth Ave&Ocean Ave SW-FS/BZ,PLYMOCE1,PLYMOCEN,5975,37.723638,-122.456233,,OCEAN AVE,PLYMOUTH AVE,FS,SW,,1,1729767266000,15736120,147,11,POINT (-122.456233 37.723638),11/02/2024 08:47:21 PM,11/04/2024 09:42:39 AM,10,8,24,64,64
73082,Clayton St&Carl St NW-NS/PS,CLTNCAR0,CLTNCARL,4074,37.766154,-122.44794,,CARL ST,CLAYTON ST,NS,NW,,0,1729767266000,15728919,147,8,POINT (-122.44794 37.766154),11/02/2024 08:47:21 PM,11/04/2024 09:42:39 AM,7,11,3,29,29
74548,The Embarcadero&Brannan St S-NS/SI,EMBRBRAN,,7145,37.784627,-122.387977,1,BRANNAN ST,THE EMBARCADERO,,SO,,0,1729767266000,15737358,147,6,POINT (-122.387977 37.784627),11/02/2024 08:47:21 PM,11/04/2024 09:42:39 AM,1,10,8,31,31
75689,Rhode Island St&26th St NW-NS,R IS26S0,R IS26ST,6200,37.750727,-122.401342,,26TH ST,RHODE ISLAND ST,NS,NW,,0,1729767266000,15738442,147,10,POINT (-122.401342 37.750727),11/02/2024 08:47:21 PM,11/04/2024 09:42:39 AM,2,9,26,54,54
73388,Ellsworth St&Crescent Ave SE-NS/SB,EWTHCRE1,EWTHCRES,4568,37.73471,-122.41490999999999,,CRESCENT AVE,ELLSWORTH ST,NS,SE,,0,1729767266000,15729457,147,9,POINT (-122.41491 37.73471),11/02/2024 08:47:21 PM,11/04/2024 09:42:39 AM,9,2,2,83,83
74645,California St&19TH Ave SW-NS/BZ,CALI19A1,CALI19AV,3836,37.784109,-122.47871,1,19TH AVE,CALIFORNIA ST,NS,SW,,1,1729767266000,15735919,147,1,POINT (-122.47871 37.784109),11/02/2024 08:47:21 PM,11/04/2024 09:42:39 AM,8,4,29,8,8
73246,Connecticut St&Cesar Chavez St NE-FS,CONNCHA1,CONNCHAV,4131,37.750001999999995,-122.39622,,CESAR CHAVEZ ST,CONNECTICUT ST,FS,NE,,0,1729767266000,15729045,147,10,POINT (-122.39622 37.750002),11/02/2024 08:47:21 PM,11/04/2024 09:42:39 AM,2,9,1,54,54
74469,Font Blvd & Juan Bautista Cir. W-NS/SB,FONTJBAU,,7790,37.718477,-122.478691,,JUAN BAUTISTA CIR,FONT BLVD,,,,0,1729767266000,15738898,147,7,POINT (-122.478691 37.718477),11/02/2024 08:47:21 PM,11/04/2024 09:42:39 AM,10,8,16,42,42
72807,46th Ave&Moraga St SE-NS/SB,46AVMOR1,46AVMORA,3585,37.754756,-122.505449,,MORAGA ST,46TH AVE,NS,SE,,0,1729767266000,15728127,147,4,POINT (-122.505449 37.754756),11/02/2024 08:47:21 PM,11/04/2024 09:42:39 AM,10,7,35,39,39
74665,Hermann St&Fillmore St NE-NS/BZ,HERMFIL1,HERMFILL,5017,37.770306999999995,-122.429929,1,FILLMORE ST,HERMANN ST,NS,NE,BZ,0,1729767266000,15735964,147,5,POINT (-122.429929 37.770307),11/02/2024 08:47:21 PM,11/04/2024 09:42:39 AM,7,11,9,28,28
74991,16th Ave&Lawton St E-MI/SB,16AVLAW1,16AVLAWT,3272,37.758109999999995,-122.47367,,LAWTON ST,16TH AVE,MI,EA,FL,0,1729767266000,15737803,147,7,POINT (-122.47367 37.75811),11/02/2024 08:47:21 PM,11/04/2024 09:42:39 AM,10,8,14,44,44
74755,150 Otis St NW-MB/BB,OTIS 150,OTIS 150,5835,37.771594,-122.420422,,,OTIS ST,MB,NW,BB,0,1729767266000,15735997,147,6,POINT (-122.420422 37.771594),11/02/2024 08:47:21 PM,11/04/2024 09:42:39 AM,1,10,20,32,32
74273,Cesar Chavez St&Valencia St SE-FS/BB,CHAVVLN1,,7592,37.748056,-122.420064,,VALENCIA ST,ARMY ST,,,,0,1729767266000,15738662,147,9,POINT (-122.420064 37.748056),11/02/2024 08:47:21 PM,11/04/2024 09:42:39 AM,3,2,2,83,83
74044,Market St&Guerrero St S-NS/SI,MRKTGUE1,MRKTGUER,5675,37.77057,-122.424971,1,GUERRERO ST,MARKET ST,NS,SO,SI,0,1729767266000,15732104,147,8,POINT (-122.424971 37.77057),11/02/2024 08:47:21 PM,11/04/2024 09:42:39 AM,1,5,20,27,27
75149,Masonic Ave&Fulton St SE-NS/RC,MSICFUL1,MSICFULT,5706,37.77571,-122.44636,,FULTON ST,MASONIC AVE,NS,SE,BZ,0,1729767266000,15736462,147,5,POINT (-122.44636 37.77571),11/02/2024 08:47:21 PM,11/04/2024 09:42:39 AM,7,11,18,24,24
75658,Teresita Blvd&Isola Way E-MB/SB,TEREISL1,TEREISLA,6672,37.741839999999996,-122.45047199999999,,ISOLA WAY,TERESITA BLVD,MB,EA,,0,1729767266000,15736892,147,7,POINT (-122.450472 37.74184),11/02/2024 08:47:21 PM,11/04/2024 09:42:39 AM,9,8,41,72,72
75300,Warren Dr&Locksley Ave NE-NS/PS,WARNLOC1,WARNLOCK,6913,37.758694,-122.463135,,LOCKSLEY AVE,WARREN DR,NS,NE,,0,1729767266000,15735022,147,7,POINT (-122.463135 37.758694),11/02/2024 08:47:21 PM,11/04/2024 09:42:39 AM,7,8,14,111,111
73952,Jackson St&Steiner St NE-NS/AB,JACKSTE0,JACKSTEI,5162,37.79235,-122.436109,,STEINER ST,JACKSON ST,NS,NE,,0,1729767266000,15731193,147,2,POINT (-122.436109 37.79235),11/02/2024 08:47:21 PM,11/04/2024 09:42:39 AM,4,6,30,102,102
75244,Balboa St&Park Presidio Blvd NW-FS,BBOAPKP0,BBOAPKPR,3070,37.776894999999996,-122.472227,,PARK PRESIDIO BLVD,BALBOA ST,FS,NW,BZ,0,1729767266000,15738039,147,1,POINT (-122.472227 37.776895),11/02/2024 08:47:21 PM,11/04/2024 09:42:39 AM,8,4,29,5,5
72691,Broadway&Montgomery St SW-NS/BB,BDWYMTG0,BDWYMTGY,3084,37.798134,-122.40396,,MONTGOMERY ST,BROADWAY,NS,SW,,1,1729767266000,15727362,147,3,POINT (-122.40396 37.798134),11/02/2024 08:47:21 PM,11/04/2024 09:42:39 AM,6,3,23,106,106
75207,Union St&Baker St SW-NS/PS,UNINBAK1,UNINBAKR,6746,37.79575,-122.445509,,BAKER ST,UNION ST,NS,SW,,0,1729767266000,15734955,147,2,POINT (-122.445509 37.79575),11/02/2024 08:47:21 PM,11/04/2024 09:42:39 AM,4,6,13,14,14
73904,Monterey Blvd&Foerster St NW-FS/BZ,MTRYFOE0,MTRYFOER,5432,37.731615,-122.44916599999999,,FOERSTER ST,MONTEREY BLVD,FS,NW,BZ,1,1729767266000,15731450,147,7,POINT (-122.449166 37.731615),11/02/2024 08:47:21 PM,11/04/2024 09:42:39 AM,9,8,41,95,95
74562,Geneva Ave&Santos St N-FS/BZ,GNVASANN,GNVASANT,4900,37.708484,-122.420354,,SANTOS ST,GENEVA AVE,FS,NO,BZ,0,1729767266000,15737406,147,10,POINT (-122.420354 37.708484),11/02/2024 08:47:21 PM,11/04/2024 09:42:39 AM,9,9,40,74,74
73649,Hayes St&Gough St NW-FS/BZ,HAYSGOU0,HAYSGOUG,4996,37.776893,-122.423326,,GOUGH ST,HAYES ST,FS,NW,BZ,0,1729767266000,15730151,147,5,POINT (-122.423326 37.776893),11/02/2024 08:47:21 PM,11/04/2024 09:42:39 AM,4,11,9,22,22
75252,Persia Ave&Mission St S-FS/BZ,PERSMIS0,PERSMISS,5913,37.722941,-122.435765,,MISSION ST,PERSIA AVE,FS,SO,,1,1729767266000,15738060,147,11,POINT (-122.435765 37.722941),11/02/2024 08:47:21 PM,11/04/2024 09:42:39 AM,9,1,7,90,90
75282,46th Ave&Lawton St SE-NS/PS,46AVLAW1,46AVLAWT,3581,37.756612,-122.505577,,LAWTON ST,46TH AVE,NS,SE,,0,1729767266000,15733531,147,4,POINT (-122.505577 37.756612),11/02/2024 08:47:21 PM,11/04/2024 09:42:39 AM,10,7,35,39,39
74425,Castro Station Outbound,CTROSTAO,CTRO STA,6991,37.762682999999996,-122.435289,,CASTRO ST,17TH ST,,,,0,1729767266000,15737253,147,8,POINT (-122.435289 37.762683),11/02/2024 08:47:21 PM,11/04/2024 09:42:39 AM,3,5,5,38,38
74066,Pacific Ave&Taylor St NE-NS/PS,PACFTAY1,PACFTAYL,5856,37.796164999999995,-122.41327,,TAYLOR ST,PACIFIC AVE,NS,NE,,1,1729767266000,15731857,147,3,POINT (-122.41327 37.796165),11/02/2024 08:47:21 PM,11/04/2024 09:42:39 AM,6,3,21,107,107
74852,Prague St&Persia Ave N-NS/PS,PRAGPER0,PRAGPERS,6082,37.71903,-122.42717999999999,,PERSIA AVE,PRAGUE ST,NS,NO,FL,0,1729767266000,15734619,147,11,POINT (-122.42718 37.71903),11/02/2024 08:47:21 PM,11/04/2024 09:42:39 AM,9,1,7,90,90
75505,Market St&Grant Ave W-FS/BZ,MRKTGRN0,MRKTGRNT,5674,37.78639,-122.40516,1,GRANT AVE,MARKET ST,FS,WE,BZ,1,1729767266000,15733694,147,6,POINT (-122.40516 37.78639),11/02/2024 08:47:21 PM,11/04/2024 09:42:39 AM,5,3,8,19,19
75083,Bayshore Blvd&Blanken Ave SE-NS/BZ,BSHRBLKN,,7334,37.712226,-122.402179,1,BLANKEN AVE,BAYSHORE BLVD,,,,0,1729767266000,15737834,147,10,POINT (-122.402179 37.712226),11/02/2024 08:47:21 PM,11/04/2024 09:42:39 AM,9,9,1,89,89
73277,Fulton St&Arguello Blvd NW-FS/BZ,FULTARG0,FULTARGL,4223,37.774353999999995,-122.458416,,MCALLISTER ST,ARGUELLO BLVD,FS,NW,BZ,0,1729767266000,15729542,147,1,POINT (-122.458416 37.774354),11/02/2024 08:47:21 PM,11/04/2024 09:42:39 AM,8,4,11,5,5
72654,Balboa St&12TH Ave SW-NS/PS,BBOA12A1,BBOA12AV,3041,37.776868,-122.470531,,12TH AVE,BALBOA ST,NS,SW,,0,1729767266000,15727778,147,1,POINT (-122.470531 37.776868),11/02/2024 08:47:21 PM,11/04/2024 09:42:39 AM,8,4,11,5,5
75478,Market St&Castro St E-NS/SB,MRKTCTRE,MRKTCTRO,5667,37.763022,-122.434979,1,,MARKET ST,FS,WE,SI,0,1729767266000,15736756,147,8,POINT (-122.434979 37.763022),11/02/2024 08:47:21 PM,11/04/2024 09:42:39 AM,7,5,5,28,28
74983,McLaren School NE-FS/SB,SUNYMCS0,SUNYMCSC,6574,37.714133,-122.423673,1,,SUNNYDALE AVE,FS,NE,,0,1729767266000,15737774,147,10,POINT (-122.423673 37.714133),11/02/2024 08:47:21 PM,11/04/2024 09:42:39 AM,9,9,19,74,74
73767,Legion of Honor SE-NS/BZ,LEG.HON1,LEG.HON.,4873,37.785015,-122.499592,,EL CAMINO DEL MAR,LEGION OF HONOR DR,NS,SE,BZ,1,1729767266000,15730999,147,1,POINT (-122.499592 37.785015),11/02/2024 08:47:21 PM,11/04/2024 09:42:39 AM,8,4,17,7,7
74060,Pacific Ave&Mason St NE-NS/SB,PACFMAS1,PACFMASN,5847,37.796378,-122.411619,,MASON ST,PACIFIC AVE,NS,NE,,0,1729767266000,15731851,147,3,POINT (-122.411619 37.796378),11/02/2024 08:47:21 PM,11/04/2024 09:42:39 AM,6,3,6,107,107
73320,Columbus Ave&Taylor St S-FS/BZ,COLMTAY1,COLMTAYL,4118,37.803284999999995,-122.414643,,TAYLOR ST,COLUMBUS AVE,FS,SO,BZ,0,1729767266000,15729639,147,3,POINT (-122.414643 37.803285),11/02/2024 08:47:21 PM,11/04/2024 09:42:39 AM,6,3,32,107,107
74281,Moscow St&Brazil Ave E-NS/PS,MSCWBRZL,,7983,37.721137999999996,-122.427622,,BRAZIL AVE,MOSCOW ST,,,,0,1729767266000,15738687,147,11,POINT (-122.427622 37.721138),11/02/2024 08:47:21 PM,11/04/2024 09:42:39 AM,9,1,7,90,90
72713,23rd St&Utah St SE-FS/BZ,23STUTA1,23STUTAH,3454,37.754298,-122.405304,,UTAH ST,23RD ST,FS,SE,BZ,1,1729767266000,15727488,147,10,POINT (-122.405304 37.754298),11/02/2024 08:47:21 PM,11/04/2024 09:42:39 AM,3,9,20,54,54
72781,22nd Ave&Noriega St NE-FS/BZ,22AVNOR1,22AVNORI,3431,37.754337,-122.479611,,NORIEGA ST,22ND AVE,FS,NE,BZ,0,1729767266000,15728059,147,4,POINT (-122.479611 37.754337),11/02/2024 08:47:21 PM,11/04/2024 09:42:39 AM,10,7,35,39,39
73913,Main St&Market St NE-MB/BB,MAINMRK1,MAINMRKT,5336,37.79253,-122.39567,,MARKET ST,MAIN ST,MB,NE,BZ,0,1729767266000,15731474,147,6,POINT (-122.39567 37.79253),11/02/2024 08:47:21 PM,11/04/2024 09:42:39 AM,6,10,8,108,108
73887,Industrial St&Elmira St SE-FS/SB,INDSELM0,INDSELMR,5094,37.73879,-122.40373,,ELMIRA ST,INDUSTRIAL ST,FS,SE,,0,1729767266000,15731410,147,10,POINT (-122.40373 37.73879),11/02/2024 08:47:21 PM,11/04/2024 09:42:39 AM,2,9,1,82,82
75261,Van Dyke Ave&Jennings St W-NS,VDYKJEN1,VDYKJENN,6840,37.72707,-122.38883,,JENNINGS ST,VAN DYKE AVE,NS,WE,FL,0,1729767266000,15738114,147,10,POINT (-122.38883 37.72707),11/02/2024 08:47:21 PM,11/04/2024 09:42:39 AM,2,9,1,86,86
74646,Cesar Chavez St&Florida St SW-NS/BZ,CHAVFLO1,CHAVFLOR,3930,37.74823,-122.40976,,FLORIDA ST,CESAR CHAVEZ ST,NS,SW,BZ,0,1729767266000,15735923,147,9,POINT (-122.40976 37.74823),11/02/2024 08:47:21 PM,11/04/2024 09:42:39 AM,3,2,2,60,60
74128,Market St&Montgomery St W-FS/BZ,MRKTMTG0,MRKTMTGY,5684,37.788489999999996,-122.40248,1,MONTGOMERY ST,MARKET ST,FS,WE,BZ,1,1729767266000,15732209,147,3,POINT (-122.40248 37.78849),11/02/2024 08:47:21 PM,11/04/2024 09:42:39 AM,6,3,8,19,19
75402,Stanyan St&Hayes St SE-NS/BZ,STANHAY1,STANHAYS,6480,37.772819,-122.45418599999999,,HAYES ST,STANYAN ST,NS,SE,BZ,0,1729767266000,15733571,147,5,POINT (-122.454186 37.772819),11/02/2024 08:47:21 PM,11/04/2024 09:42:39 AM,7,11,18,24,24
75644,Turk St&Arguello Blvd SE-FS/BZ,TURKARG1,TURKARGL,6709,37.77715,-122.45818,,ARGUELLO BLVD,TURK ST,FS,SE,BZ,1,1729767266000,15735394,147,1,POINT (-122.45818 37.77715),11/02/2024 08:47:21 PM,11/04/2024 09:42:39 AM,8,4,18,12,12
74794,Santos St&Geneva Ave N-NS/SB,SANTGNV0,SANTGNVA,6344,37.708600000000004,-122.42007,1,GENEVA AVE,SANTIAGO ST,NS,NO,,0,1729767266000,15737619,147,10,POINT (-122.42007 37.7086),11/02/2024 08:47:21 PM,11/04/2024 09:42:39 AM,9,9,40,74,74
74477,Valencia St&Mission St NE-FS/BZ,VLNCMISS,VLNCMISS,7902,37.745942,-122.419984,,MISSION ST,VALENCIA ST,FS,NE,BZ,0,1729767266000,15738907,147,9,POINT (-122.419984 37.745942),11/02/2024 08:47:21 PM,11/04/2024 09:42:39 AM,9,2,2,83,83
74461,Mission Bay South & 4th St,MBSO.4ST,,7766,37.770513,-122.391037,,04TH ST,MISSION BAY BLVD,,,,0,1729767266000,15738887,147,6,POINT (-122.391037 37.770513),11/02/2024 08:47:21 PM,11/04/2024 09:42:39 AM,1,10,4,34,34
73851,Junipero Serra Blvd & Font Blvd NW,J S FON0,J S FONT,5136,37.71463,-122.47191,1,FONT BLVD,JUNIPERO SERRA BLVD,NS,NW,FL,0,1729767266000,15730891,147,7,POINT (-122.47191 37.71463),11/02/2024 08:47:21 PM,11/04/2024 09:42:39 AM,10,8,16,42,42
75472,Masonic Ave&Oak St SE-NS/BZ,MSICOAK1,MSICOAK,5716,37.771963,-122.445625,,OAK ST,MASONIC AVE,NS,SE,BZ,0,1729767266000,15736705,147,5,POINT (-122.445625 37.771963),11/02/2024 08:47:21 PM,11/04/2024 09:42:39 AM,7,11,3,25,25
73609,Fitzgerald Ave&Jennings St W-NS/PS,FITZJEN1,FITZJENN,4647,37.722028,-122.39332,,JENNINGS ST,FITZGERALD AVE,NS,WE,,0,1729767266000,15730309,147,10,POINT (-122.39332 37.722028),11/02/2024 08:47:21 PM,11/04/2024 09:42:39 AM,2,9,1,88,88
75607,Cabrillo St&La Playa SE-FS/BZ,CBROLAP1,,7204,37.773206,-122.50987599999999,,LA PLAYA ST,CABRILLO ST,,SE,,0,1729767266000,15733804,147,1,POINT (-122.509876 37.773206),11/02/2024 08:47:21 PM,11/04/2024 09:42:39 AM,8,4,29,8,8
75314,46th Ave&Vicente St NW-NS/PS,46AVVCT0,46AVVCTE,3602,37.738141999999996,-122.50444,1,VICENTE ST,46TH AVE,NS,NW,,0,1729767266000,15735059,147,4,POINT (-122.50444 37.738142),11/02/2024 08:47:21 PM,11/04/2024 09:42:39 AM,10,7,35,39,39
74440,South Hill Blvd&Chicago Way W-NS/PS,SOHLCHG1,SOHLCHGO,6469,37.710708,-122.431507,,CHICAGO WAY,SOUTH HILL BLVD,NS,WE,,0,1729767266000,15737349,147,11,POINT (-122.431507 37.710708),11/02/2024 08:47:21 PM,11/04/2024 09:42:39 AM,9,1,7,58,58
72866,Third Street&Mission Rock St. NE-FS,.3STMSR1,4ST 3ST,3153,37.772966,-122.38969399999999,1,MISSION ROCK ST,3RD ST,FS,NO,BZ,0,1729767266000,15727950,147,6,POINT (-122.389694 37.772966),11/02/2024 08:47:21 PM,11/04/2024 09:42:39 AM,1,10,4,34,34
74609,Persia Ave&Naples St E-NS/PS,PERSNAP1,PERSNAPL,5916,37.72088,-122.43107,,NAPLES ST,PERSIA AVE,NS,EA,,0,1729767266000,15734364,147,11,POINT (-122.43107 37.72088),11/02/2024 08:47:21 PM,11/04/2024 09:42:39 AM,9,1,7,90,90
73519,Larkin St&Grove St NE-FS/BZ,LARKGRO1,LARKGROV,4848,37.778901,-122.416545,,GROVE ST,LARKIN ST,FS,NE,BZ,0,1729767266000,15729811,147,5,POINT (-122.416545 37.778901),11/02/2024 08:47:21 PM,11/04/2024 09:42:39 AM,5,10,36,21,21
74535,Sutter St&Gough St NE-NS/BZ,SUTTGOU0,SUTTGOUG,6593,37.787206999999995,-122.424924,,GOUGH ST,SUTTER ST,NS,NE,BZ,1,1729767266000,15735859,147,2,POINT (-122.424924 37.787207),11/02/2024 08:47:21 PM,11/04/2024 09:42:39 AM,4,6,39,100,100
74754,North Point St&Polk St SE-FS/BZ,N.PTPOL1,N.PTPOLK,5469,37.805240999999995,-122.423494,1,POLK ST,NORTH POINT ST,FS,SE,BZ,0,1729767266000,15735988,147,2,POINT (-122.423494 37.805241),11/02/2024 08:47:21 PM,11/04/2024 09:42:39 AM,6,6,32,98,98
72864,3rd St&Salinas Ave NW-NS/SB,.3STSLN0,3STSLNS,3146,37.720861,-122.396459,1,SALINAS AVE,03RD ST,NS,NW,BZ,0,1729767266000,15727936,147,10,POINT (-122.396459 37.720861),11/02/2024 08:47:21 PM,11/04/2024 09:42:39 AM,2,9,1,88,88
74870,Rousseau St&Cayuga Ave E-NS/PS,ROUSCAY1,ROUSCAYU,6212,37.731398999999996,-122.429647,,ALEMANY BLVD,ROUSSEAU ST,NS,EA,FL,0,1729767266000,15736114,147,11,POINT (-122.429647 37.731399),11/02/2024 08:47:21 PM,11/04/2024 09:42:39 AM,9,5,28,94,94
74649,Oakdale Ave&Loomis St NE-NS/BZ,OAKDLOOM,OAKDLOOM,7032,37.742528,-122.404165,,LOOMIS ST,OAKDALE AVE,FS,NW,,0,1729767266000,15735927,147,10,POINT (-122.404165 37.742528),11/02/2024 08:47:21 PM,11/04/2024 09:42:39 AM,2,9,1,85,85
73373,Garfield St&Vernon St NE-NS/SB,GARFVER1,GARFVERN,4253,37.719746,-122.467937,,VERNON ST,GARFIELD ST,NS,NE,,0,1729767266000,15729433,147,11,POINT (-122.467937 37.719746),11/02/2024 08:47:21 PM,11/04/2024 09:42:39 AM,10,1,24,64,64
73936,Mission St&9th St E-FS/BZ,MISS 9S1,MISS 9ST,5542,37.77645,-122.41431,,9TH ST,MISSION ST,FS,EA,BZ,0,1729767266000,15731145,147,6,POINT (-122.41431 37.77645),11/02/2024 08:47:21 PM,11/04/2024 09:42:39 AM,1,10,34,32,32
74735,Portola Dr&Rex Ave S-NS/SB,PORTREX1,PORTREX,6118,37.740885,-122.457517,,REX AVE,PORTOLA DR,NS,SO,,0,1729767266000,15734458,147,7,POINT (-122.457517 37.740885),11/02/2024 08:47:21 PM,11/04/2024 09:42:39 AM,9,8,41,117,117
75887,Irving St&8th Ave SW-NS/BB,IRVG 8AV,,7996,37.764038,-122.465428,1,08TH AVE,IRVING ST,,,,0,1729767266000,15739178,147,7,POINT (-122.465428 37.764038),11/02/2024 08:47:21 PM,11/04/2024 09:42:39 AM,10,11,14,109,109
74494,17th St&Cole St NE-NS/PS,17STCOLE,17STCOLE,3310,37.76168,-122.44898,,COLE ST,17TH ST,NS,NE,,0,1729767266000,15734291,147,8,POINT (-122.44898 37.76168),11/02/2024 08:47:21 PM,11/04/2024 09:42:39 AM,7,11,3,114,114
73367,Fowler Ave&Portola Dr S-FS/SB,FWLRPOR0,FWLRPORT,4238,37.744355999999996,-122.453233,,PORTOLA DR,FOWLER AVE,FS,SO,,1,1729767266000,15729419,147,7,POINT (-122.453233 37.744356),11/02/2024 08:47:21 PM,11/04/2024 09:42:39 AM,9,8,41,72,72
72878,11th St&Harrison St S-FS/BZ,11STHAR0,11STHARR,3239,37.770557,-122.412492,1,HARRISON ST,11TH ST,FS,SO,BZ,0,1729767266000,15727999,147,6,POINT (-122.412492 37.770557),11/02/2024 08:47:21 PM,11/04/2024 09:42:39 AM,1,10,20,32,32
74865,Warren Dr&Christopher Dr E-NS/SB,WARNCHP1,WARNCHPR,6911,37.75376,-122.459971,,CHRISTOPHER DR,WARREN DR,NS,EA,,0,1729767266000,15736104,147,7,POINT (-122.459971 37.75376),11/02/2024 08:47:21 PM,11/04/2024 09:42:39 AM,7,8,14,111,111
73251,Corbett Ave&Clayton St N-NS/PS,CRBTCLT0,CRBTCLTN,4171,37.758939999999996,-122.44614,,CLAYTON ST,CORBETT AVE,NS,NO,,0,1729767266000,15729053,147,8,POINT (-122.44614 37.75894),11/02/2024 08:47:21 PM,11/04/2024 09:42:39 AM,7,5,5,115,115
75305,Broad St&Plymouth Ave SW-NS/PS,BRODPLY0,BRODPLYM,3719,37.713161,-122.45618,,PLYMOUTH AVE,BROAD ST,NS,SW,,0,1729767266000,15735030,147,11,POINT (-122.45618 37.713161),11/02/2024 08:47:21 PM,11/04/2024 09:42:39 AM,10,1,24,81,81
73063,Clarendon Ave&Panorama Dr S-NS/PS,CLDNPNR1,CLDNPNRM,4037,37.753679999999996,-122.455514,,PANORAMA DR,CLARENDON AVE,NS,SE,,0,1729767266000,15728872,147,7,POINT (-122.455514 37.75368),11/02/2024 08:47:21 PM,11/04/2024 09:42:39 AM,7,8,38,48,48
73742,Jones St&Beach St NW-NS/PS,JONEBEC0,JONEBECH,5184,37.807131999999996,-122.41732400000001,1,BEACH ST,JONES ST,NS,NW,,0,1729767266000,15730484,147,3,POINT (-122.417324 37.807132),11/02/2024 08:47:21 PM,11/04/2024 09:42:39 AM,6,3,23,99,99
75124,San Jose Ave&Santa Ynez Ave S-NS/SI,S.J.SYN1,S.J.SYNZ,6288,37.725681,-122.442442,,SANTA YNEZ AVE,SAN JOSE AVE,NS,SO,SI,0,1729767266000,15736377,147,11,POINT (-122.442442 37.725681),11/02/2024 08:47:21 PM,11/04/2024 09:42:39 AM,9,1,28,94,94
73736,Harrison St&5th St W-FS/BZ,HARR 5S1,HARR 5ST,4969,37.778914,-122.402137,,5TH ST,HARRISON ST,FS,WE,BZ,0,1729767266000,15730456,147,6,POINT (-122.402137 37.778914),11/02/2024 08:47:21 PM,11/04/2024 09:42:39 AM,1,10,34,32,32
75869,San Bruno Ave&Paul Ave SE-NS/PS,SBROPAU0,SBROPAUL,6363,37.723647,-122.40186299999999,,PAUL AVE,SAN BRUNO AVE,NS,SE,,0,1729767266000,15737124,147,10,POINT (-122.401863 37.723647),11/02/2024 08:47:21 PM,11/04/2024 09:42:39 AM,2,2,25,91,91
74466,Mason St&Yacht Rd FS NW/PS,MASNMRN0,,8023,37.805020999999996,-122.44850199999999,,,MASON ST,,,,0,1729767266000,15738895,147,2,POINT (-122.448502 37.805021),11/02/2024 08:47:21 PM,11/04/2024 09:42:39 AM,,6,27,3,3
74652,California St&10TH Ave NW-FS/PS,CALI10A0,CALI10AV,3828,37.784665,-122.46915899999999,1,10TH AVE,CALIFORNIA ST,NS,NE,,0,1729767266000,15735931,147,1,POINT (-122.469159 37.784665),11/02/2024 08:47:21 PM,11/04/2024 09:42:39 AM,8,4,11,5,5
73635,Lake Merced&Middlefield Dr NE-NS,L M MID1,L M MIDF,4838,37.729628,-122.486404,,MIDDLEFIELD DR,LAKE MERCED BLVD,NS,NE,,0,1729767266000,15730124,147,4,POINT (-122.486404 37.729628),11/02/2024 08:47:21 PM,11/04/2024 09:42:39 AM,10,8,16,43,43
73940,Jackson St&Hyde St NW-FS/PS,JACKHYD1,JACKHYDE,5151,37.794605,-122.418293,,HYDE ST,JACKSON ST,FS,NW,,0,1729767266000,15731157,147,3,POINT (-122.418293 37.794605),11/02/2024 08:47:21 PM,11/04/2024 09:42:39 AM,6,3,32,16,16
73537,Eureka St&20TH St SE-NS/PS,ERKA20S0,ERKA20ST,4537,37.75741,-122.437879,,20TH ST,EUREKA ST,NS,SE,,0,1729767266000,15730180,147,8,POINT (-122.437879 37.75741),11/02/2024 08:47:21 PM,11/04/2024 09:42:39 AM,3,5,5,115,115
73303,California St&Powell St NW-FS,CALIPOW0,CALIPOWL,3890,37.792068,-122.40942,,POWELL ST,CALIFORNIA ST,FS,NW,,1,1729767266000,15729601,147,3,POINT (-122.40942 37.792068),11/02/2024 08:47:21 PM,11/04/2024 09:42:39 AM,6,3,21,16,16
74730,Silver Ave&San Bruno Ave S-NS/BZ,SILVSBR0,SILVSBRO,6421,37.73241,-122.405672,,SAN BRUNO AVE,SILVER AVE,NS,SO,BZ,0,1729767266000,15734443,147,9,POINT (-122.405672 37.73241),11/02/2024 08:47:21 PM,11/04/2024 09:42:39 AM,2,2,25,91,91
72794,18th St&Valencia St NW-FS/BZ,18STVLN1,18STVLNC,3348,37.761762,-122.42173199999999,,VALENCIA ST,18TH ST,FS,NW,BZ,1,1729767266000,15728085,147,9,POINT (-122.421732 37.761762),11/02/2024 08:47:21 PM,11/04/2024 09:42:39 AM,3,5,20,37,37
72888,14th Ave&Ulloa St NW-NS,14AVULO1,14AVULOA,3252,37.74153,-122.47018,,ULLOA ST,14TH AVE,NS,NW,,0,1729767266000,15728040,147,7,POINT (-122.47018 37.74153),11/02/2024 08:47:21 PM,11/04/2024 09:42:39 AM,10,8,41,46,46
74510,Sacramento St&Franklin St NE-NS/BZ,SACOFRK0,SACOFRKL,6297,37.79118,-122.42407,1,FRANKLIN ST,SACRAMENTO ST,NS,NE,BZ,0,1729767266000,15734342,147,2,POINT (-122.42407 37.79118),11/02/2024 08:47:21 PM,11/04/2024 09:42:39 AM,4,6,30,102,102
74662,Diamond St&Cesar Chavez St SE-NS/PS,DIAMCHAV,DIAMARMY,4384,37.747104,-122.435841,,CESAR CHAVEZ ST,DIAMOND ST,NS,SE,,0,1729767266000,15735960,147,8,POINT (-122.435841 37.747104),11/02/2024 08:47:21 PM,11/04/2024 09:42:39 AM,3,5,22,84,84
73854,Junipero Serra&Sloat Blvd SW-FS/BZ,J.S.SLO0,J.S.SLOA,5141,37.734307,-122.471675,1,SLOAT BLVD,JUNIPERO SERRA BLVD,FS,SW,BZ,1,1729767266000,15730907,147,7,POINT (-122.471675 37.734307),11/02/2024 08:47:21 PM,11/04/2024 09:42:39 AM,10,8,41,62,62
74485,Wisconsin St&25th St NW-NS/SB,WISC25S0,WISC25ST,6961,37.752286999999995,-122.398556,,25TH ST,WISCONSIN ST,NS,NW,,0,1729767266000,15734257,147,10,POINT (-122.398556 37.752287),11/02/2024 08:47:21 PM,11/04/2024 09:42:39 AM,2,9,26,54,54
72995,Arguello Blvd&Turk Blvd NE-FS/BZ,ARGLTUR1,ARGLTURK,3651,37.777477,-122.458519,,TURK BLVD,ARGUELLO BLVD,FS,NE,BZ,0,1729767266000,15728336,147,1,POINT (-122.458519 37.777477),11/02/2024 08:47:21 PM,11/04/2024 09:42:39 AM,8,4,18,12,12
75755,Sloat Blvd&26th Ave SW-NS/BZ,SLOA26A1,SLOA26AV,6440,37.734286999999995,-122.48218,,26TH AVE,SLOAT BLVD,NS,SW,BZ,0,1729767266000,15735464,147,4,POINT (-122.48218 37.734287),11/02/2024 08:47:21 PM,11/04/2024 09:42:39 AM,10,8,35,62,62
75485,Ocean Ave&Cayuga Ave NE-NS/BZ,OCENCAY0,OCENCAYU,5782,37.72367,-122.43867,,CAYUGA AVE,OCEAN AVE,NS,NE,BZ,0,1729767266000,15738245,147,11,POINT (-122.43867 37.72367),11/02/2024 08:47:21 PM,11/04/2024 09:42:39 AM,9,1,28,94,94
75137,Plymouth Ave&Lakeview Ave NW-NS,PLYMLKV0,PLYMLKVW,5964,37.718454,-122.456209,,LAKEVIEW AVE,PLYMOUTH AVE,NS,NW,FL,0,1729767266000,15736450,147,11,POINT (-122.456209 37.718454),11/02/2024 08:47:21 PM,11/04/2024 09:42:39 AM,10,1,24,64,64
74774,Polk St&Sacramento St W-MB/BB,POLKSAC0,POLKSACO,6000,37.791928999999996,-122.42105699999999,,SACRAMENTO ST,POLK ST,MB,WE,BB,1,1729767266000,15736046,147,3,POINT (-122.421057 37.791929),11/02/2024 08:47:21 PM,11/04/2024 09:42:39 AM,4,3,21,105,105
74967,Clay St&Powell St SW-NS/BZ,CLAYPOW1,CLAYPOWL,4027,37.793825999999996,-122.409591,1,CODMAN PL,CLAY ST,NS,SW,BZ,0,1729767266000,15737737,147,3,POINT (-122.409591 37.793826),11/02/2024 08:47:21 PM,11/04/2024 09:42:39 AM,6,3,21,16,16
73451,Geary Blvd&Van Ness Ave NW-FS/BB,GEARV.N0,GEARV.N.,4768,37.785745,-122.421575,1,VAN NESS AVE,GEARY BLVD,NS,NE,BZ,0,1729767266000,15730030,147,2,POINT (-122.421575 37.785745),11/02/2024 08:47:21 PM,11/04/2024 09:42:39 AM,4,11,39,100,100
75577,Carmel St&Twin Peaks Blvd SW-NS/PS,CRMLT P,CRMLT P,4205,37.760934999999996,-122.446634,,TWIN PEAKS BLVD,CARMEL ST,NS,SW,,0,1729767266000,15738360,147,8,POINT (-122.446634 37.760935),11/02/2024 08:47:21 PM,11/04/2024 09:42:39 AM,7,11,14,114,114
72912,Bryant St&23RD St SW-FS/BB,BRYT23S0,BRYT23ST,3745,37.754149999999996,-122.40932,,23RD ST,BRYANT ST,FS,SW,BB,0,1729767266000,15728499,147,9,POINT (-122.40932 37.75415),11/02/2024 08:47:21 PM,11/04/2024 09:42:39 AM,3,2,20,53,53
73665,Ingalls St&Thomas Ave S-NS,INGLTHO1,INGLTHOM,5112,37.727109999999996,-122.38571999999999,,THOMAS AVE,INGALLS ST,NS,SO,FL,0,1729767266000,15730571,147,10,POINT (-122.38572 37.72711),11/02/2024 08:47:21 PM,11/04/2024 09:42:39 AM,2,9,1,78,78
75372,Taraval St&46th Ave NE-NS/SI,TARA46A0,TARA46AV,6638,37.741823,-122.50449,1,46TH AVE,TARAVAL ST,NS,NE,,0,1729767266000,15738147,147,4,POINT (-122.50449 37.741823),11/02/2024 08:47:21 PM,11/04/2024 09:42:39 AM,10,7,35,39,39
73847,Hyde St&Filbert St NW-NS,HYDEFIL1,HYDEFILB,5070,37.800208,-122.41933399999999,,FILBERT ST,HYDE ST,NS,NW,,0,1729767266000,15730879,147,3,POINT (-122.419334 37.800208),11/02/2024 08:47:21 PM,11/04/2024 09:42:39 AM,6,6,32,107,107
74830,Turk St&Masonic Ave NW-FS/BZ,TURKMSI0,TURKMSIC,6724,37.778664,-122.447206,,MASONIC AVE,TURK BLVD,FS,NW,BZ,1,1729767266000,15734567,147,1,POINT (-122.447206 37.778664),11/02/2024 08:47:21 PM,11/04/2024 09:42:39 AM,7,4,18,12,12
74987,Silver Ave&Revere Ave W-FS/PS,SILVRVR1,SILVRVRE,6420,37.736360999999995,-122.398888,,REVERE AVE,SILVER AVE,FS,WE,,0,1729767266000,15737789,147,10,POINT (-122.398888 37.736361),11/02/2024 08:47:21 PM,11/04/2024 09:42:39 AM,2,9,1,87,87
73457,Folsom St&16TH St NE-FS/BZ,FOLS16S1,FOLS16ST,4668,37.76557,-122.415245,,16TH ST,FOLSOM ST,FS,NE,BZ,1,1729767266000,15730062,147,9,POINT (-122.415245 37.76557),11/02/2024 08:47:21 PM,11/04/2024 09:42:39 AM,3,2,20,53,53
74446,Otis & McCoppin St SW-FS/BZ,OTISMCOP,,7870,37.771603,-122.420365,,,OTIS ST,,,,0,1729767266000,15738839,147,6,POINT (-122.420365 37.771603),11/02/2024 08:47:21 PM,11/04/2024 09:42:39 AM,1,10,20,32,32
73517,Folsom St&8TH St E-FS/BZ,FOLS 8S1,FOLS 8ST,4662,37.775115,-122.409773,,8TH ST,FOLSOM ST,FS,EA,BZ,0,1729767266000,15729806,147,6,POINT (-122.409773 37.775115),11/02/2024 08:47:21 PM,11/04/2024 09:42:39 AM,1,10,34,32,32
73516,Folsom St&7TH St S-NS/BZ,FOLS 7S1,FOLS 7ST,4661,37.776641,-122.407847,,7TH ST,FOLSOM ST,NS,SO,BZ,0,1729767266000,15729805,147,6,POINT (-122.407847 37.776641),11/02/2024 08:47:21 PM,11/04/2024 09:42:39 AM,1,10,34,32,32
73476,Diamond St&Bosworth St SW-FS/BZ,DIAMBOS0,DIAMBOSW,4387,37.733452,-122.434217,,BOSWORTH ST,DIAMOND ST,FS,SW,BZ,0,1729767266000,15729718,147,8,POINT (-122.434217 37.733452),11/02/2024 08:47:21 PM,11/04/2024 09:42:39 AM,9,5,41,96,96
73998,Mission St&14th St NE-FS/BZ,MISS14S1,MISS14ST,5547,37.76862,-122.41993,,14TH ST,MISSION ST,FS,NE,BZ,0,1729767266000,15731669,147,9,POINT (-122.41993 37.76862),11/02/2024 08:47:21 PM,11/04/2024 09:42:39 AM,3,2,20,53,53
75708,3rd St&Williams Ave SW-FS/BZ,.3STWLM0,3STWLMS,3150,37.729166,-122.392776,1,WILLIAMS AVE,3RD ST,FS,SW,BZ,1,1729767266000,15738497,147,10,POINT (-122.392776 37.729166),11/02/2024 08:47:21 PM,11/04/2024 09:42:39 AM,2,9,1,86,86
73919,Middle Point Rd&West Point Rd SW-FS,MDPTWPT3,MDPTWPTS,5504,37.73502,-122.37947,,WEST POINT RD,MIDDLE POINT RD,FS,SW,,0,1729767266000,15731494,147,10,POINT (-122.37947 37.73502),11/02/2024 08:47:21 PM,11/04/2024 09:42:39 AM,2,9,1,86,86
73089,Alemany Blvd&St Charles Ave SW-NS/SB,ALEMSTC1,ALEMSTCH,3628,37.710359,-122.469458,,ST CHARLES AVE,ALEMANY BLVD,NS,SW,FL,0,1729767266000,15728641,147,7,POINT (-122.469458 37.710359),11/02/2024 08:47:21 PM,11/04/2024 09:42:39 AM,10,8,24,65,65
73534,The Embarcadero&Washington St NE,EMBRWAS1,EMBRWASH,4532,37.797084999999996,-122.39567,1,WASHINGTON ST,THE EMBARCADERO,FS,NE,SI,0,1729767266000,15730171,147,3,POINT (-122.39567 37.797085),11/02/2024 08:47:21 PM,11/04/2024 09:42:39 AM,6,3,8,77,77
73978,Mission St&Russia Ave S-NS/BZ,MISSRUS0,MISSRUSS,5615,37.721469,-122.437117,,RUSSIA AVE,MISSION ST,NS,SO,BZ,1,1729767266000,15731313,147,11,POINT (-122.437117 37.721469),11/02/2024 08:47:21 PM,11/04/2024 09:42:39 AM,9,1,7,90,90
74787,Union St&Hyde St SW-NS/BZ,UNINHYD1,UNINHYDE,6761,37.799119999999995,-122.419151,,HYDE ST,UNION ST,NS,SW,BZ,0,1729767266000,15737597,147,3,POINT (-122.419151 37.79912),11/02/2024 08:47:21 PM,11/04/2024 09:42:39 AM,6,3,32,107,107
73874,Noe St&27th St SE-NS/PS,NOE 27S1,NOE 27ST,5733,37.746539999999996,-122.43132,,27TH ST,NOE ST,NS,SE,,0,1729767266000,15731385,147,8,POINT (-122.43132 37.74654),11/02/2024 08:47:21 PM,11/04/2024 09:42:39 AM,9,5,22,84,84
74571,20th St&Missouri St NE-NS/SB,20STMIS3,,8064,37.760093999999995,-122.39616699999999,,TEXAS ST,20TH ST,,,,0,1729767266000,15738933,147,10,POINT (-122.396167 37.760094),11/02/2024 08:47:21 PM,11/04/2024 09:42:39 AM,2,9,26,54,54
73061,Cortland Ave&Folsom St SW-NS/BZ,CORTFOL0,CORTFOLS,4154,37.73892,-122.41343,,FOLSOM ST,CORTLAND AVE,NS,SW,BZ,1,1729767266000,15728870,147,9,POINT (-122.41343 37.73892),11/02/2024 08:47:21 PM,11/04/2024 09:42:39 AM,9,2,2,83,83
75611,Powell St&O'Farrell St NW-NS,POWLOFA1,POWLOFAR,6067,37.786508999999995,-122.408139,,OFARRELL ST,POWELL ST,NS,NW,,0,1729767266000,15733814,147,3,POINT (-122.408139 37.786509),11/02/2024 08:47:21 PM,11/04/2024 09:42:39 AM,6,3,36,19,19
75893,Jerrold Ave & Donahue St SW-NS/SB,JERRDNH1,,8051,37.728190999999995,-122.370807,,DONAHUE ST,JERROLD AVE,,,,0,1729767266000,15739196,147,10,POINT (-122.370807 37.728191),11/02/2024 08:47:21 PM,11/04/2024 09:42:39 AM,2,9,1,78,78
72784,22nd St&Minnesota St SE-NS,22STMIN1,22STMINN,3437,37.757807,-122.39026799999999,,MINNESOTA ST,22ND ST,FS,SE,,0,1729767266000,15728068,147,10,POINT (-122.390268 37.757807),11/02/2024 08:47:21 PM,11/04/2024 09:42:39 AM,2,9,26,55,55
74939,Portola Dr&Claremont Blvd NE-NS,PORTCLAR,,7151,37.73985,-122.46504,,CLAREMONT AVE,PORTOLA ST,,,,0,1729767266000,15734726,147,7,POINT (-122.46504 37.73985),11/02/2024 08:47:21 PM,11/04/2024 09:42:39 AM,10,8,41,49,49
75606,Broadway&Grant Ave NW-FS/BZ,BDWYGRN0,,7185,37.797849,-122.407342,,GRANT AVE,BROADWAY,,NW,,0,1729767266000,15733801,147,3,POINT (-122.407342 37.797849),11/02/2024 08:47:21 PM,11/04/2024 09:42:39 AM,6,3,6,106,106
75816,Bayshore Blvd&Alemany Blvd NW-NS/SB,BSHRALE1,,7313,37.738371,-122.407306,,ALEMANY BLVD,BAYSHORE BLVD,,,,0,1729767266000,15733961,147,9,POINT (-122.407306 37.738371),11/02/2024 08:47:21 PM,11/04/2024 09:42:39 AM,2,2,2,82,82
73891,Innes Ave&Earl St W-NS/PS,INESEAR0,INESEARL,5098,37.729869,-122.372134,,EARL ST,INNES AVE,NS,WE,,0,1729767266000,15731414,147,10,POINT (-122.372134 37.729869),11/02/2024 08:47:21 PM,11/04/2024 09:42:39 AM,2,9,1,78,78
73566,Hyde St&Bay St W-MI,HYDEBAY1,HYDEBAY,5060,37.804777,-122.420261,,BAY ST,HYDE ST,MI,WE,,0,1729767266000,15730237,147,2,POINT (-122.420261 37.804777),11/02/2024 08:47:21 PM,11/04/2024 09:42:39 AM,6,6,32,107,107
72766,Broderick St&Bay St SE-NS/SB,BDRKBAY0,BDRKBAY,3072,37.801541,-122.44479799999999,,BAY ST,BRODERICK ST,NS,SE,,0,1729767266000,15727719,147,2,POINT (-122.444798 37.801541),11/02/2024 08:47:21 PM,11/04/2024 09:42:39 AM,4,6,13,17,17
75263,Presidio Ave&Sutter St NE-FS/PS,PRESSUT1,PRESSUTT,6098,37.784535,-122.446197,,SUTTER ST,PRESIDIO AVE,FS,NE,,0,1729767266000,15738116,147,2,POINT (-122.446197 37.784535),11/02/2024 08:47:21 PM,11/04/2024 09:42:39 AM,8,6,31,103,103
72855,9th Ave&Kirkham St NW-NS/BZ,.9AVKIR0,9AVKIRK,3216,37.760407,-122.466149,,KIRKHAM ST,9TH AVE,NS,NW,BZ,1,1729767266000,15727876,147,7,POINT (-122.466149 37.760407),11/02/2024 08:47:21 PM,11/04/2024 09:42:39 AM,10,8,14,109,109
75549,Northridge Rd&Harbor Rd SE-NS,NRDGHRB0,NRDGHRBR,5767,37.730978,-122.377013,,HARBOR RD,NORTHRIDGE RD,NS,SE,FL,0,1729767266000,15736803,147,10,POINT (-122.377013 37.730978),11/02/2024 08:47:21 PM,11/04/2024 09:42:39 AM,2,9,1,78,78
74934,Garfield St&Byxbee St SW-NS/SB,GARFBXB0,,7325,37.719584999999995,-122.469953,,BYXBEE ST,GARFIELD ST,,,,0,1729767266000,15734700,147,11,POINT (-122.469953 37.719585),11/02/2024 08:47:21 PM,11/04/2024 09:42:39 AM,10,1,24,64,64
73970,McAllister St&Hyde St S-MB/PS,MCALHYD1,MCALHYDE,5396,37.780609999999996,-122.41587,,HYDE ST,MCALLISTER ST,MB,SO,FL,0,1729767266000,15731257,147,5,POINT (-122.41587 37.78061),11/02/2024 08:47:21 PM,11/04/2024 09:42:39 AM,5,10,36,21,21
72687,Balboa St&23RD Ave NE-NS/PS,BBOA23A0,BBOA23AV,3049,37.776469999999996,-122.48219,,23RD AVE,BALBOA ST,NS,NE,,0,1729767266000,15727353,147,1,POINT (-122.48219 37.77647),11/02/2024 08:47:21 PM,11/04/2024 09:42:39 AM,8,4,29,8,8
73580,Frederick St&Arguello Blvd NE-NS/PS,FREDARG0,FREDARGL,4714,37.766056,-122.457601,,ARGUELLO BLVD,FREDERICK ST,NS,NE,,0,1729767266000,15730255,147,5,POINT (-122.457601 37.766056),11/02/2024 08:47:21 PM,11/04/2024 09:42:39 AM,7,11,12,9,9
75832,Sacramento St&Laguna St SW-NS/PS,SACOLGN1,SACOLGNA,6306,37.790400000000005,-122.42930000000001,1,LAGUNA ST,SACRAMENTO ST,NS,SW,,0,1729767266000,15734031,147,2,POINT (-122.4293 37.7904),11/02/2024 08:47:21 PM,11/04/2024 09:42:39 AM,4,6,30,102,102
73339,Diamond Heights&Addison St NE-FS/SB,DHTSADDI,DHTSADDI,4360,37.740198,-122.435762,,ADDISON ST,DIAMOND HEIGHTS BLVD,FS,NE,FL,0,1729767266000,15729327,147,8,POINT (-122.435762 37.740198),11/02/2024 08:47:21 PM,11/04/2024 09:42:39 AM,9,5,10,59,59
74822,Ripley St&Folsom St NE-NS/SB,RIPLFOL0,RIPLFOLS,6210,37.74418,-122.41315,,FOLSOM ST,RIPLEY ST,NS,NE,,0,1729767266000,15733083,147,9,POINT (-122.41315 37.74418),11/02/2024 08:47:21 PM,11/04/2024 09:42:39 AM,9,2,2,83,83
73960,Jefferson St&Taylor St NE-NS/PS,JEFFTAY1,JEFFTAYL,5175,37.808319999999995,-122.415514,1,TAYLOR ST,JEFFERSON ST,NS,NE,,0,1729767266000,15731214,147,3,POINT (-122.415514 37.80832),11/02/2024 08:47:21 PM,11/04/2024 09:42:39 AM,6,3,23,99,99
73794,Lincoln Way&9th Ave SE-FS/BZ,LWAY 9A1,LWAY 9AV,5301,37.765859,-122.46623,,9TH AVE,LINCOLN WY,FS,SE,BZ,1,1729767266000,15731094,147,7,POINT (-122.46623 37.765859),11/02/2024 08:47:21 PM,11/04/2024 09:42:39 AM,10,11,14,109,109
74150,O'Shaughnessy Blvd&Malta Dr NE-FS,OSHAMAL1,OSHAMALT,5832,37.736610999999996,-122.44330099999999,,MALTA DR,O SHAUGHNESSY BLVD,FS,NE,,0,1729767266000,15732311,147,8,POINT (-122.443301 37.736611),11/02/2024 08:47:21 PM,11/04/2024 09:42:39 AM,9,5,10,96,96
72892,Chestnut St&Fillmore St SW-NS/BZ,CHESFIL1,CHESFILL,3942,37.800737999999996,-122.436371,,FILLMORE ST,CHESTNUT ST,NS,SW,BZ,0,1729767266000,15728447,147,2,POINT (-122.436371 37.800738),11/02/2024 08:47:21 PM,11/04/2024 09:42:39 AM,4,6,13,17,17
73310,Chicago Way&Cordova St E-FS/PS,CHGOCOR0,CHGOCORD,3960,37.70887,-122.434222,,CORDOVA ST,CHICAGO WAY,FS,EA,,0,1729767266000,15729625,147,11,POINT (-122.434222 37.70887),11/02/2024 08:47:21 PM,11/04/2024 09:42:39 AM,9,1,7,58,58
75349,California St&Cherry St SE-FS/BZ,CALICHR1,CALICHRY,3853,37.785973999999996,-122.456329,1,CHERRY ST,CALIFORNIA ST,FS,SE,BZ,1,1729767266000,15736613,147,2,POINT (-122.456329 37.785974),11/02/2024 08:47:21 PM,11/04/2024 09:42:39 AM,8,6,31,11,11
75589,Powell St&North Point St SE-NS/SB,POWLN P1,POWLN PT,6065,37.806666,-122.412038,,NORTH POINT ST,POWELL ST,NS,SE,,0,1729767266000,15738384,147,3,POINT (-122.412038 37.806666),11/02/2024 08:47:21 PM,11/04/2024 09:42:39 AM,6,3,23,99,99
72824,25th Ave&Fulton St NW-NS/PS,25AVFUL0,25AVFULT,3499,37.772689,-122.484295,,FULTON ST,25TH AVE,NS,NW,,0,1729767266000,15728166,147,1,POINT (-122.484295 37.772689),11/02/2024 08:47:21 PM,11/04/2024 09:42:39 AM,8,4,29,8,8
73345,Diamond St&24TH St SE-NS/PS,DIAM24SE,DIAM24ST,4371,37.751075,-122.436219,,24TH ST,DIAMOND ST,NS,SE,,0,1729767266000,15729334,147,8,POINT (-122.436219 37.751075),11/02/2024 08:47:21 PM,11/04/2024 09:42:39 AM,3,5,22,84,84
75456,Diamond St&Diamond Heights Blvd E-FS/SB,DIAMDHTE,DIAMDHTS,4394,37.741599,-122.43535,,DIAMOND HEIGHTS BLVD,DIAMOND ST,FS,EA,,0,1729767266000,15736663,147,8,POINT (-122.43535 37.741599),11/02/2024 08:47:21 PM,11/04/2024 09:42:39 AM,9,5,10,57,57
75294,Persia Ave&Prague St E-NS/SB,PERSPRA1,PERSPRAG,5920,37.718961,-122.427062,,PRAGUE ST,PERSIA AVE,NS,EA,,1,1729767266000,15733554,147,11,POINT (-122.427062 37.718961),11/02/2024 08:47:21 PM,11/04/2024 09:42:39 AM,9,1,7,90,90
72646,9th Ave&Noriega St SE-NS/BZ,.9AVNOR1,9AVNORI,3225,37.754633999999996,-122.465551,,NORIEGA ST,9TH AVE,NS,SE,BZ,0,1729767266000,15727764,147,7,POINT (-122.465551 37.754634),11/02/2024 08:47:21 PM,11/04/2024 09:42:39 AM,10,8,14,44,44
74354,Bay St&Midway St SE-FS/SB,BAY MID1,BAY MIDW,3031,37.806094,-122.409161,,MIDWAY ST,BAY ST,FS,SE,,0,1729767266000,15737215,147,3,POINT (-122.409161 37.806094),11/02/2024 08:47:21 PM,11/04/2024 09:42:39 AM,6,3,23,99,99
73593,Fillmore St&Jackson St NE-FS/BZ,FILLJAC1,FILLJACK,4623,37.792761,-122.434556,,JACKSON ST,FILLMORE ST,FS,NE,BZ,0,1729767266000,15730280,147,2,POINT (-122.434556 37.792761),11/02/2024 08:47:21 PM,11/04/2024 09:42:39 AM,4,6,30,102,102
74385,Brotherhood Way&Summit Way SE-FS/SB,BRHDSUM1,,7798,37.713588,-122.474474,,CHURCH ACCESS RD,BROTHERHOOD WY,,,,0,1729767266000,15738799,147,7,POINT (-122.474474 37.713588),11/02/2024 08:47:21 PM,11/04/2024 09:42:39 AM,10,8,16,42,42
74369,25th AVE & Dakota NS SW,25STDAK1,,7525,37.752348,-122.394695,,DAKOTA ST,25TH ST,,,,0,1729767266000,15738741,147,10,POINT (-122.394695 37.752348),11/02/2024 08:47:21 PM,11/04/2024 09:42:39 AM,2,9,1,54,54
74270,McAllister  St. & Jones FS-NW/BZ,MCALJONE,,7563,37.781166,-122.412189,,CHARLES J BRENHAM PL,MCALLISTER ST,,,,0,1729767266000,15738649,147,5,POINT (-122.412189 37.781166),11/02/2024 08:47:21 PM,11/04/2024 09:42:39 AM,5,10,36,20,20
73485,Diamond St&Moffitt St N-NS/PS,DIAMMOF0,DIAMMOFT,4400,37.738800000000005,-122.43463,,MOFFITT ST,DIAMOND ST,NS,NO,FL,0,1729767266000,15729737,147,8,POINT (-122.43463 37.7388),11/02/2024 08:47:21 PM,11/04/2024 09:42:39 AM,9,5,10,96,96
75020,Hyde St&Greenwich St SE-NS,HYDEGNW0,HYDEGNWH,5073,37.800993,-122.419322,,GREENWICH ST,HYDE ST,NS,SE,,0,1729767266000,15733235,147,3,POINT (-122.419322 37.800993),11/02/2024 08:47:21 PM,11/04/2024 09:42:39 AM,6,6,32,107,107
73474,Diamond St&Cesar Chavez St SW-FS/PS,DIAMCHA0,DIAMARMY,4385,37.747068,-122.43599,,CESAR CHAVEZ ST,DIAMOND ST,FS,SW,,0,1729767266000,15729712,147,8,POINT (-122.43599 37.747068),11/02/2024 08:47:21 PM,11/04/2024 09:42:39 AM,3,5,22,84,84
75722,Topeka Ave&Bridge View Dr E-NS,TPKABRV0,TPKABRVW,6702,37.7333,-122.39762,,BRIDGE VIEW DR,TOPEKA AVE,NS,EA,FL,0,1729767266000,15733892,147,10,POINT (-122.39762 37.7333),11/02/2024 08:47:21 PM,11/04/2024 09:42:39 AM,2,9,1,87,87
74861,Point Lobos Ave&44th Ave NE-NS/SB,PTLO44A0,PTLO44AV,6111,37.779837,-122.50501,1,44TH AVE,POINT LOBOS AVE,NS,NE,,0,1729767266000,15736091,147,1,POINT (-122.50501 37.779837),11/02/2024 08:47:21 PM,11/04/2024 09:42:39 AM,8,4,29,6,6
75114,Vicente St&30th Ave SE-FS/BZ,VCTE30A1,VCTE30AV,6835,37.738765,-122.487131,,30TH AVE,VICENTE ST,FS,SE,BZ,1,1729767266000,15734882,147,4,POINT (-122.487131 37.738765),11/02/2024 08:47:21 PM,11/04/2024 09:42:39 AM,10,7,35,40,40
74274,Folsom St&20TH ST SW-FS-BB,FOLS20ST,,7732,37.758762,-122.414789,,20TH ST,FOLSOM ST,,,,0,1729767266000,15738676,147,9,POINT (-122.414789 37.758762),11/02/2024 08:47:21 PM,11/04/2024 09:42:39 AM,3,2,20,53,53
74575,Steuart & Don Chee Way NE/NS SB,STEUDOCH,,7833,37.793766,-122.393725,,DON CHEE WAY,STEUART ST,,,,0,1729767266000,15738941,147,3,POINT (-122.393725 37.793766),11/02/2024 08:47:21 PM,11/04/2024 09:42:39 AM,6,3,8,108,108
75347,Clayton St&Corbett Ave E-NS/PS,CLTNCRB1,CLTNCRBT,4075,37.758793,-122.44593499999999,,CORBETT AVE,CLAYTON ST,NS,EA,,0,1729767266000,15736611,147,8,POINT (-122.445935 37.758793),11/02/2024 08:47:21 PM,11/04/2024 09:42:39 AM,7,5,5,115,115
74495,19th Ave&Vicente St SW-FS/BZ,19AVVCT0,19AVVCTE,3399,37.73901,-122.47552999999999,1,VICENTE ST,19TH AVE,FS,SW,BZ,1,1729767266000,15734292,147,4,POINT (-122.47553 37.73901),11/02/2024 08:47:21 PM,11/04/2024 09:42:39 AM,10,7,35,40,40
75267,Taraval St&44th Ave NE-NS/SI,TARA44A0,TARA44AV,6636,37.741924,-122.502346,1,44TH AVE,TARAVAL ST,NS,NE,,0,1729767266000,15733475,147,4,POINT (-122.502346 37.741924),11/02/2024 08:47:21 PM,11/04/2024 09:42:39 AM,10,7,35,39,39
73636,Lake Merced&Middlefield Dr SE-FS/SB,L M MID0,L M MIDF,4839,37.729441,-122.48629,,MIDDLEFIELD DR,LAKE MERCED BLVD,FS,SE,,0,1729767266000,15730128,147,7,POINT (-122.48629 37.729441),11/02/2024 08:47:21 PM,11/04/2024 09:42:39 AM,10,8,16,43,43
73354,Duboce Ave&Church St SW-NS/SI,DUBOCHU1,DUBOCHUR,4448,37.769408999999996,-122.4294,1,CHURCH ST,DUBOCE AVE,NS,SW,SI,0,1729767266000,15729354,147,8,POINT (-122.4294 37.769409),11/02/2024 08:47:21 PM,11/04/2024 09:42:39 AM,7,5,5,28,28
75188,Visitacion Ave&Sawyer St E-NS/SB,VISISAW0,VISISAWY,6852,37.713283,-122.414237,,SAWYER ST,VISITACION AVE,NS,EA,,0,1729767266000,15733423,147,10,POINT (-122.414237 37.713283),11/02/2024 08:47:21 PM,11/04/2024 09:42:39 AM,9,9,40,75,75
74531,Powell St&Geary St NW-NS,POWLGEA1,POWLGEAR,6057,37.787464,-122.408322,,GEARY ST,POWELL ST,NS,NW,,0,1729767266000,15735842,147,3,POINT (-122.408322 37.787464),11/02/2024 08:47:21 PM,11/04/2024 09:42:39 AM,6,3,36,19,19
73239,23rd St&Kansas St SW-NS,23STKAN1,,3450,37.754447999999996,-122.402668,,KANSAS ST,23RD ST,,SW,,0,1729767266000,15729032,147,10,POINT (-122.402668 37.754448),11/02/2024 08:47:21 PM,11/04/2024 09:42:39 AM,2,9,26,54,54
72707,24th St&Noe St NE-NS/BZ,24STNOE0,24STNOE,3478,37.751511,-122.43177299999999,,NOE ST,24TH ST,NS,NE,BZ,0,1729767266000,15727469,147,8,POINT (-122.431773 37.751511),11/02/2024 08:47:21 PM,11/04/2024 09:42:39 AM,3,5,22,84,84
75128,City College Bookstore SW-FS/BZ,FRIDBKS0,PHELBKST,5923,37.72385,-122.45242999999999,,CLOUD CIR,PHELAN AVE,FS,SW,BZ,1,1729767266000,15736428,147,7,POINT (-122.45243 37.72385),11/02/2024 08:47:21 PM,11/04/2024 09:42:39 AM,9,8,41,71,71
73961,Lincoln Way&Funston Ave SW-NS/BZ,LWAYFUN1,LWAYFUNS,5327,37.76565,-122.47086,,FUNSTON AVE,LINCOLN WAY,NS,SW,BZ,1,1729767266000,15731218,147,7,POINT (-122.47086 37.76565),11/02/2024 08:47:21 PM,11/04/2024 09:42:39 AM,10,11,14,109,109
74411,Pacific Ave&Jones St NE-NS/PS,PACFJON1,PACFJONE,5840,37.79596,-122.41490999999999,,JONES ST,PACIFIC AVE,NS,NE,,0,1729767266000,15735759,147,3,POINT (-122.41491 37.79596),11/02/2024 08:47:21 PM,11/04/2024 09:42:39 AM,6,3,21,107,107
75254,Union St&Montgomery St SW-NS/SB,UNINMTG0,UNINMTGY,6776,37.800962,-122.40450799999999,,MONTGOMERY ST,UNION ST,NS,SW,,0,1729767266000,15738065,147,3,POINT (-122.404508 37.800962),11/02/2024 08:47:21 PM,11/04/2024 09:42:39 AM,6,3,23,18,18
74222,Quintara St&27th Ave SW-NS/PS,QUIN27A1,QUIN27AV,6149,37.748219999999996,-122.48477,,27TH AVE,QUINTARA ST,NS,SW,FL,1,1729767266000,15732659,147,4,POINT (-122.48477 37.74822),11/02/2024 08:47:21 PM,11/04/2024 09:42:39 AM,10,7,35,40,40
74593,Folsom St&Beale St N-MB/BI,FOLSBEA0,,8002,37.788404,-122.393259,,BEALE ST,FOLSOM ST,,,,0,1729767266000,15738987,147,6,POINT (-122.393259 37.788404),11/02/2024 08:47:21 PM,11/04/2024 09:42:39 AM,1,10,8,32,32
75707,8th Ave&Fulton St NW-NS/BZ,.8AVFUL0,8AVFULT,3202,37.773478,-122.46598,,FULTON ST,8TH AVE,NS,NW,BZ,0,1729767266000,15738495,147,1,POINT (-122.46598 37.773478),11/02/2024 08:47:21 PM,11/04/2024 09:42:39 AM,8,4,11,5,5
73075,California St&Leavenworth St NE-NS,CALILEA0,CALILEAV,3877,37.791284999999995,-122.415611,,LEAVENWORTH ST,CALIFORNIA ST,NS,NE,,0,1729767266000,15728906,147,3,POINT (-122.415611 37.791285),11/02/2024 08:47:21 PM,11/04/2024 09:42:39 AM,6,3,21,16,16
74182,Jackson St&Divisadero St NE-NS/PS,JACKDIV0,JACKDIVI,5145,37.791723999999995,-122.440888,,DIVISADERO ST,JACKSON ST,NS,NE,,0,1729767266000,15732895,147,2,POINT (-122.440888 37.791724),11/02/2024 08:47:21 PM,11/04/2024 09:42:39 AM,4,6,30,102,102
74487,Schwerin St&Velasco Ave N-NS/PS,SHWNVEL0,SHWNVELA,6389,37.708149999999996,-122.41257,1,VELASCO AVE,SCHWERIN ST,NS,NO,,0,1729767266000,15734260,147,,POINT (-122.41257 37.70815),11/02/2024 08:47:21 PM,11/04/2024 09:42:39 AM,,,,,
74431,Embarcadero Station Outbound,EMBSTA0,,7217,37.79259,-122.397268,,DAVIS ST,MARKET ST,,NW,,0,1729767266000,15737294,147,3,POINT (-122.397268 37.79259),11/02/2024 08:47:21 PM,11/04/2024 09:42:39 AM,6,3,8,108,108
72957,33rd Ave&Anza St NW-NS/SB,33AVANZ0,33AVANZA,3551,37.777861,-122.49324899999999,1,ANZA ST,33RD AVE,NS,NW,,0,1729767266000,15728245,147,1,POINT (-122.493249 37.777861),11/02/2024 08:47:21 PM,11/04/2024 09:42:39 AM,8,4,29,8,8
74323,Foerster St&Judson Ave NE-FS/BZ,FOERJDS1,FOERJDSN,4650,37.728491999999996,-122.448753,,JUDSON AVE,FOERSTER ST,FS,NE,BZ,0,1729767266000,15734145,147,7,POINT (-122.448753 37.728492),11/02/2024 08:47:21 PM,11/04/2024 09:42:39 AM,9,8,41,95,95
75543,Noriega St&46th Ave NW-FS/BZ,NORI46A0,NORI46AV,5761,37.753034,-122.505712,,46TH AVE,NORIEGA ST,FS,NW,BZ,0,1729767266000,15736789,147,4,POINT (-122.505712 37.753034),11/02/2024 08:47:21 PM,11/04/2024 09:42:39 AM,10,7,35,39,39
72876,11th St&Bryant St N-FS/BZ,11STBRY1,11STBRYT,3235,37.769807,-122.41130000000001,1,BRYANT ST,11TH ST,FS,NO,BZ,0,1729767266000,15727982,147,6,POINT (-122.4113 37.769807),11/02/2024 08:47:21 PM,11/04/2024 09:42:39 AM,1,10,34,32,32
73990,Mt Vernon Ave&Howth St W-NS,MTVNHOW1,MTVNHOWT,5446,37.71969,-122.45177,,HOWTH ST,MT VERNON AVE,NS,WE,FL,0,1729767266000,15731645,147,11,POINT (-122.45177 37.71969),11/02/2024 08:47:21 PM,11/04/2024 09:42:39 AM,10,1,24,81,81
75289,Polk St&Washington St W-MB/BB,POLKWAS0,POLKWASH,6007,37.793695,-122.421411,,WASHINGTON ST,POLK ST,MB,WE,BB,0,1729767266000,15733540,147,3,POINT (-122.421411 37.793695),11/02/2024 08:47:21 PM,11/04/2024 09:42:39 AM,4,3,32,105,105
72742,3rd St&Innes Ave SW-FS/BZ,.3STINE0,3STINES,3129,37.73932,-122.38926000000001,1,INNES AVE,03RD ST,FS,SW,BZ,0,1729767266000,15727598,147,10,POINT (-122.38926 37.73932),11/02/2024 08:47:21 PM,11/04/2024 09:42:39 AM,2,9,1,86,86
74093,Mission St&Onondaga Ave N-NS/BZ,MISSONO1,MISSONON,5609,37.721281999999995,-122.437483,,ONONDAGA AVE,MISSION ST,NS,NO,BZ,1,1729767266000,15732405,147,11,POINT (-122.437483 37.721282),11/02/2024 08:47:21 PM,11/04/2024 09:42:39 AM,9,1,28,80,80
74424,Yerba Buena Ave&Ravenwood Dr N-FS,Y B RVW1,Y B RVWD,6989,37.73531,-122.46055,,RAVENWOOD DR,MIRALOMA DR,FS,NO,,0,1729767266000,15737252,147,7,POINT (-122.46055 37.73531),11/02/2024 08:47:21 PM,11/04/2024 09:42:39 AM,9,8,41,117,117
74332,Union St&Pierce St SW-NS/BZ,UNINPIE1,UNINPIER,6778,37.796589,-122.438883,,PIERCE ST,UNION ST,NS,SW,BZ,1,1729767266000,15737154,147,2,POINT (-122.438883 37.796589),11/02/2024 08:47:21 PM,11/04/2024 09:42:39 AM,4,6,13,14,14
73764,Haight St&Fillmore St NW-FS/BZ,HAITFIL0,HAITFILL,4952,37.77214,-122.43075999999999,1,FILLMORE ST,HAIGHT ST,FS,NW,BZ,1,1729767266000,15730991,147,5,POINT (-122.43076 37.77214),11/02/2024 08:47:21 PM,11/04/2024 09:42:39 AM,4,11,9,26,26
75089,3rd St&Gilman Ave NE-FS/SI,3ST GIL0,3ST GIL0,7347,37.722449,-122.39561,1,GILMAN AVE,3RD ST,FS,NE,SI,0,1729767266000,15737882,147,10,POINT (-122.39561 37.722449),11/02/2024 08:47:21 PM,11/04/2024 09:42:39 AM,2,9,1,88,88
75096,Lincoln Way&31st Ave NW-FS/BZ,LWAY31A0,LWAY31AV,5320,37.764942999999995,-122.490422,,31ST AVE,LINCOLN WY,FS,NW,BZ,0,1729767266000,15733300,147,4,POINT (-122.490422 37.764943),11/02/2024 08:47:21 PM,11/04/2024 09:42:39 AM,10,4,12,9,9
72803,46th Ave&Kirkham St SE-NS/PS,46AVKIR1,46AVKIRK,3579,37.758485,-122.505716,,KIRKHAM ST,46TH AVE,NS,SE,,0,1729767266000,15728121,147,4,POINT (-122.505716 37.758485),11/02/2024 08:47:21 PM,11/04/2024 09:42:39 AM,10,7,35,39,39
73589,Felton St&Cambridge St SW-NS,FELTCAM1,FELTCAMB,4584,37.726369999999996,-122.41851,,CAMBRIDGE ST,FELTON ST,NS,SW,FL,0,1729767266000,15730276,147,11,POINT (-122.41851 37.72637),11/02/2024 08:47:21 PM,11/04/2024 09:42:39 AM,9,2,7,92,92
73384,Crescent Ave&Andover St NE-NS/PS,CRESAND0,CRESANDV,4189,37.734966,-122.416725,,ANDOVER ST,CRESCENT AVE,NS,NE,,0,1729767266000,15729453,147,9,POINT (-122.416725 37.734966),11/02/2024 08:47:21 PM,11/04/2024 09:42:39 AM,9,2,2,83,83
73560,Leavenworth St&Post St SE-NS/BB,LEAVPOS1,LEAVPOST,4869,37.787313,-122.414875,,POST ST,LEAVENWORTH ST,NS,SE,BZ,1,1729767266000,15730218,147,3,POINT (-122.414875 37.787313),11/02/2024 08:47:21 PM,11/04/2024 09:42:39 AM,6,3,36,50,50
73805,33 Moffitt St W-MB/BZ,MOFTH 30,MOFTH 33,5634,37.736834,-122.432189,,,MOFFITT ST,MB,WE,BZ,0,1729767266000,15731118,147,8,POINT (-122.432189 37.736834),11/02/2024 08:47:21 PM,11/04/2024 09:42:39 AM,9,5,10,96,96
75179,Lake Merced&Font Blvd SE-FS/SB,L M FON1,L M FONT,4833,37.724542,-122.484758,,FONT BLVD,LAKE MERCED BLVD,FS,SE,,0,1729767266000,15733393,147,7,POINT (-122.484758 37.724542),11/02/2024 08:47:21 PM,11/04/2024 09:42:39 AM,10,8,16,42,42
75884,Spear St&Folsom St SW-NS/BB,SPERFOLS,,7995,37.790186999999996,-122.391217,,HOWARD ST,SPEAR ST,,,,0,1729767266000,15739169,147,6,POINT (-122.391217 37.790187),11/02/2024 08:47:21 PM,11/04/2024 09:42:39 AM,1,10,8,108,108
74819,Powell St&Beach St SE-NS/BZ,POWLBEC1,POWLBECH,7038,37.807639,-122.41214099999999,1,STOCKTON ST,BEACH ST,NS,SE,BZ,0,1729767266000,15733074,147,3,POINT (-122.412141 37.807639),11/02/2024 08:47:21 PM,11/04/2024 09:42:39 AM,6,3,23,99,99
74992,23rd Ave&Judah St NW-NS/PS,23AVJUD0,23AVJUDA,3442,37.761607999999995,-122.481378,,JUDAH ST,23RD AVE,NS,NW,,0,1729767266000,15737804,147,4,POINT (-122.481378 37.761608),11/02/2024 08:47:21 PM,11/04/2024 09:42:39 AM,10,7,35,39,39
74642,California St&Grant Ave N-MI,CALIGRN0,CALIGRNT,3865,37.792504,-122.405958,,GRANT AVE,CALIFORNIA ST,MI,NO,,0,1729767266000,15735908,147,3,POINT (-122.405958 37.792504),11/02/2024 08:47:21 PM,11/04/2024 09:42:39 AM,6,3,6,104,104
73132,California St&Sansome St SW,CALISAN1,,3895,37.792975,-122.401269,,SANSOME ST,CALIFORNIA ST,,SW,,0,1729767266000,15729119,147,3,POINT (-122.401269 37.792975),11/02/2024 08:47:21 PM,11/04/2024 09:42:39 AM,6,3,8,108,108
73697,Hyde St&Broadway SE-MI,HYDEBDW0,HYDEBDWY,5062,37.796344999999995,-122.418395,,BROADWAY,HYDE ST,NS,SE,,0,1729767266000,15730681,147,3,POINT (-122.418395 37.796345),11/02/2024 08:47:21 PM,11/04/2024 09:42:39 AM,6,3,32,107,107
73428,Eddy St&Divisadero St SE-FS/BZ,EDDYDIV1,EDDYDIVI,4474,37.780546,-122.438759,,DIVISADERO ST,EDDY ST,FS,SE,BZ,0,1729767266000,15729972,147,5,POINT (-122.438759 37.780546),11/02/2024 08:47:21 PM,11/04/2024 09:42:39 AM,4,11,39,97,97
73514,Folsom St&Crescent Ave NW-NS/PS,FOLSCRE1,FOLSCRES,4690,37.734829999999995,-122.41372,,CRESCENT AVE,FOLSOM ST,NS,NW,,0,1729767266000,15729803,147,9,POINT (-122.41372 37.73483),11/02/2024 08:47:21 PM,11/04/2024 09:42:39 AM,9,2,2,83,83
73643,Hayes St&Buchanan St NW-FS/BZ,HAYSBUC0,HAYSBUCH,4983,37.776261,-122.428274,,BUCHANAN ST,HAYES ST,FS,NW,BZ,1,1729767266000,15730145,147,5,POINT (-122.428274 37.776261),11/02/2024 08:47:21 PM,11/04/2024 09:42:39 AM,4,11,9,22,22
74923,Turk St&Lyon St SW-NS/SB,TURKLYO1,TURKLYON,6723,37.778957999999996,-122.443791,,LYON ST,TURK BLVD,NS,SW,,0,1729767266000,15734646,147,2,POINT (-122.443791 37.778958),11/02/2024 08:47:21 PM,11/04/2024 09:42:39 AM,7,11,18,97,97
73778,King St&2nd St S-FS/SI,KING.2S1,KING.2ST,5234,37.77972,-122.389872,1,2ND ST,KING ST,FS,SO,SI,0,1729767266000,15731051,147,6,POINT (-122.389872 37.77972),11/02/2024 08:47:21 PM,11/04/2024 09:42:39 AM,1,10,4,31,31
74306,Palou Ave&Ingalls St N-MB/SB,PALUING1,PALUINGL,5868,37.72942,-122.38273,,INGALLS ST,PALOU AVE,MB,NO,,0,1729767266000,15734121,147,10,POINT (-122.38273 37.72942),11/02/2024 08:47:21 PM,11/04/2024 09:42:39 AM,2,9,1,78,78
73280,Fulton St&Great Hwy NE-NS/SB,FULTGHW0,FULTGHWY,4227,37.771421,-122.510792,,GREAT HWY,FULTON ST,NS,NE,,0,1729767266000,15729561,147,1,POINT (-122.510792 37.771421),11/02/2024 08:47:21 PM,11/04/2024 09:42:39 AM,8,4,29,8,8
75346,Clement St&Legion Of Honor Dr NE-NS,CLMTLHO1,CLMTLHON,4069,37.781644,-122.49439699999999,,LEGION OF HONOR DR,CLEMENT ST,NS,NE,,0,1729767266000,15736609,147,1,POINT (-122.494397 37.781644),11/02/2024 08:47:21 PM,11/04/2024 09:42:39 AM,8,4,17,8,8
75521,Sutter St&Octavia St NW-FS/BZ,SUTTOCT0,SUTTOCTA,6602,37.786933,-122.427062,,OCTAVIA ST,SUTTER ST,FS,NW,BZ,1,1729767266000,15733742,147,5,POINT (-122.427062 37.786933),11/02/2024 08:47:21 PM,11/04/2024 09:42:39 AM,4,11,30,101,101
72832,Van Ness Ave&Eddy St NS-S/SI,V N EDD3,,8090,37.782854,-122.420785,,EDDY ST,VAN NESS AVE,,,,0,1729767266000,15728198,147,5,POINT (-122.420785 37.782854),11/02/2024 08:47:21 PM,11/04/2024 09:42:39 AM,4,10,36,20,20
73051,California St&25TH Ave NE-NS/PS,CALI25A0,CALI25AV,3839,37.78395,-122.48482,1,25TH AVE,CALIFORNIA ST,NS,NE,,0,1729767266000,15728850,147,1,POINT (-122.48482 37.78395),11/02/2024 08:47:21 PM,11/04/2024 09:42:39 AM,8,4,29,2,2
75272,4th St&Brannan St S-FS/PS,.4STBRA0,4STBRAN,3156,37.778304999999996,-122.396602,1,BRANNAN ST,4TH ST,FS,SO,,0,1729767266000,15733506,147,6,POINT (-122.396602 37.778305),11/02/2024 08:47:21 PM,11/04/2024 09:42:39 AM,1,10,34,32,32
74348,Eddy St&Laguna St SE-FS/BZ,EDDYLGN1,EDDYLGNA,4485,37.782016999999996,-122.427227,,LAGUNA ST,EDDY ST,FS,SE,BZ,0,1729767266000,15737205,147,5,POINT (-122.427227 37.782017),11/02/2024 08:47:21 PM,11/04/2024 09:42:39 AM,4,11,39,100,100
73860,Judah St&46th Ave SW-NS/SI,JUDA46A1,JUDA46AV,5216,37.760391999999996,-122.506064,1,46TH AVE,JUDAH ST,NS,SW,SI,0,1729767266000,15731330,147,4,POINT (-122.506064 37.760392),11/02/2024 08:47:21 PM,11/04/2024 09:42:39 AM,10,7,35,39,39
74523,Balboa Park BART Station SW-MB/BZ,GNVABAR,GNVABART,4805,37.720952,-122.447379,,I-280 N OFF RAMP,GENEVA AVE,MB,SO,BZ,0,1729767266000,15735820,147,11,POINT (-122.447379 37.720952),11/02/2024 08:47:21 PM,11/04/2024 09:42:39 AM,9,1,28,80,80
73442,Evans Ave&Middle Point Rd W-NS/SB,EVANMDP0,EVANMDPT,4552,37.737671999999996,-122.379252,,MIDDLE POINT RD,EVANS AVE,NS,WE,,0,1729767266000,15730013,147,10,POINT (-122.379252 37.737672),11/02/2024 08:47:21 PM,11/04/2024 09:42:39 AM,2,9,1,86,86
75766,Quintara St&27th Ave NE-NS/PS,QUIN27A0,QUIN27AV,6148,37.74832,-122.48458,,27TH AVE,QUINTARA ST,NS,NE,FL,0,1729767266000,15735489,147,4,POINT (-122.48458 37.74832),11/02/2024 08:47:21 PM,11/04/2024 09:42:39 AM,10,7,35,39,39
75808,Santos St&Sunrise Way SE-NS/PS,SANTTSUN,,8115,37.710589999999996,-122.418796,,BLYTHDALE AVE,SANTOS ST,,,,0,1729767266000,15738585,147,10,POINT (-122.418796 37.71059),11/02/2024 08:47:21 PM,11/04/2024 09:42:39 AM,9,9,40,74,74
75785,24th St&Guerrero St SW-NS/BZ,24STGUE1,24STGUER,3472,37.751911,-122.422985,,GUERRERO ST,24TH ST,NS,SW,BZ,1,1729767266000,15738507,147,8,POINT (-122.422985 37.751911),11/02/2024 08:47:21 PM,11/04/2024 09:42:39 AM,3,5,20,52,52
73331,Eddy St&Taylor St S-MB/BZ,EDDYTAY1,EDDYTAYL,4493,37.784172,-122.410135,,MASON ST,EDDY ST,FS,SE,BZ,0,1729767266000,15729679,147,5,POINT (-122.410135 37.784172),11/02/2024 08:47:21 PM,11/04/2024 09:42:39 AM,5,10,36,20,20
73797,655 John Muir Dr NE-MB/SB,J.M.H651,J.M.H655,5129,37.717006999999995,-122.49777,,,JOHN MUIR DR,MB,NE,,0,1729767266000,15731101,147,7,POINT (-122.49777 37.717007),11/02/2024 08:47:21 PM,11/04/2024 09:42:39 AM,10,8,16,43,43
74590,Potrero Ave & Mariposa St,POTRMAR0,,7911,37.763132,-122.407407,1,MARIPOSA ST,POTRERO AVE,,,BZ,0,1729767266000,15738976,147,9,POINT (-122.407407 37.763132),11/02/2024 08:47:21 PM,11/04/2024 09:42:39 AM,3,9,20,53,53
74474,Cesar Chavez St&Harrison St NE-NS/BZ,CHAVHARR,,7751,37.748339,-122.41138,,HARRISON ST,ARMY ST,,,,0,1729767266000,15738904,147,9,POINT (-122.41138 37.748339),11/02/2024 08:47:21 PM,11/04/2024 09:42:39 AM,3,2,20,53,53
74436,Winston Dr&Buckingham Way NW-NS/BZ,WINSBUC0,WINSBUCK,6953,37.728294,-122.478929,,BUCKINGHAM WAY,WINSTON DR,NS,NW,BZ,1,1729767266000,15737331,147,7,POINT (-122.478929 37.728294),11/02/2024 08:47:21 PM,11/04/2024 09:42:39 AM,10,8,16,41,41
73135,Church St&16TH St NW-NS/SI,CHUR16S0,CHUR16ST,3984,37.764621,-122.428722,,16TH ST,CHURCH ST,NS,NW,SI,0,1729767266000,15729135,147,8,POINT (-122.428722 37.764621),11/02/2024 08:47:21 PM,11/04/2024 09:42:39 AM,3,5,5,37,37
72720,24th St&Castro St SE-FS/BZ,24STCTR1,24STCTRO,3463,37.751262,-122.433939,,CASTRO ST,24TH ST,FS,SE,BZ,1,1729767266000,15727508,147,8,POINT (-122.433939 37.751262),11/02/2024 08:47:21 PM,11/04/2024 09:42:39 AM,3,5,22,84,84
75862,Potrero Ave&16th St NE-FS/BZ,POTR16S1,POTR16ST,6026,37.766031,-122.40747400000001,1,16TH ST,POTRERO AVE,FS,NO,BZ,0,1729767266000,15737063,147,6,POINT (-122.407474 37.766031),11/02/2024 08:47:21 PM,11/04/2024 09:42:39 AM,3,9,20,33,33
75474,Masonic Ave&Turk St NE-FS/SI,MSICTUR1,MSICTURK,5718,37.778771,-122.447,,TURK BLVD,MASONIC AVE,FS,NE,BZ,1,1729767266000,15736707,147,2,POINT (-122.447 37.778771),11/02/2024 08:47:21 PM,11/04/2024 09:42:39 AM,7,6,18,13,13
73993,Mission St&Goethe St N-NS/BB,MISSGOE0,MISSGOET,5594,37.70736,-122.45707999999999,,GOETHE ST,MISSION ST,NS,NO,BB,0,1729767266000,15731653,147,,POINT (-122.45708 37.70736),11/02/2024 08:47:21 PM,11/04/2024 09:42:39 AM,,,,,
75683,Visitacion Ave&Schwerin St W-NS/PS,VISISHW1,VISISHWN,6855,37.71218,-122.41085,,SCHWERIN ST,VISITACION AVE,NS,WE,,0,1729767266000,15738424,147,10,POINT (-122.41085 37.71218),11/02/2024 08:47:21 PM,11/04/2024 09:42:39 AM,9,9,40,75,75
74880,Parnassus Ave&Stanyan St NW-FS/BZ,PARNSTA0,PARNSTAN,5895,37.764548,-122.452879,,STANYAN ST,PARNASSUS AVE,FS,NW,BZ,0,1729767266000,15736132,147,8,POINT (-122.452879 37.764548),11/02/2024 08:47:21 PM,11/04/2024 09:42:39 AM,7,11,14,110,110
75898,Ingalls St&Oakdale Ave SE-NS/SB,INGLOAK1,,8056,37.730286,-122.38289,,OAKDALE AVE,INGALLS ST,,,,0,1729767266000,15739204,147,10,POINT (-122.38289 37.730286),11/02/2024 08:47:21 PM,11/04/2024 09:42:39 AM,2,9,1,78,78
75536,North Point St&Larkin St NE-NS/BZ,N.PTLAR0,N.PTLARK,5464,37.805589999999995,-122.42188999999999,1,LARKIN ST,NORTH POINT ST,NS,NE,BZ,0,1729767266000,15735253,147,2,POINT (-122.42189 37.80559),11/02/2024 08:47:21 PM,11/04/2024 09:42:39 AM,6,6,32,98,98
75520,Sutter St&Mason St NW-FS/BZ,SUTTMAS0,SUTTMASN,6601,37.789062,-122.410316,,MASON ST,SUTTER ST,FS,NW,BZ,0,1729767266000,15733739,147,3,POINT (-122.410316 37.789062),11/02/2024 08:47:21 PM,11/04/2024 09:42:39 AM,6,3,21,50,50
74912,Santos St&Velasco Ave N-NS/PS,SANTVEL0,SANTVELA,6346,37.710028,-122.419426,2,VELASCO AVE,SANTOS ST,NS,SO,,0,1729767266000,15733158,147,10,POINT (-122.419426 37.710028),11/02/2024 08:47:21 PM,11/04/2024 09:42:39 AM,9,9,40,74,74
72699,19th Ave&Lawton St NE-FS/BB,19AVLAW1,19AVLAWT,3368,37.758075999999996,-122.47663299999999,1,LAWTON ST,19TH AVE,NS,SE,BZ,0,1729767266000,15727401,147,7,POINT (-122.476633 37.758076),11/02/2024 08:47:21 PM,11/04/2024 09:42:39 AM,10,8,14,44,44
75720,Rhode Island St&22nd St SW-FS/SB,R IS22S0,R IS22ST,6196,37.756884,-122.401911,,22ND ST,RHODE ISLAND ST,FS,SW,,0,1729767266000,15733890,147,10,POINT (-122.401911 37.756884),11/02/2024 08:47:21 PM,11/04/2024 09:42:39 AM,2,9,26,54,54
72841,30th St&Sanchez St NE-NS/BZ,30STSNC1,30STSNCZ,3543,37.74202,-122.4286,,SANCHEZ ST,30TH ST,NS,NE,BZ,0,1729767266000,15728229,147,8,POINT (-122.4286 37.74202),11/02/2024 08:47:21 PM,11/04/2024 09:42:39 AM,9,5,22,84,84
74592,Mission & Fremont S-NS/SI,MISSFRE1,,7945,37.790261,-122.396788,,01ST ST,MISSION ST,,,,0,1729767266000,15738984,147,6,POINT (-122.396788 37.790261),11/02/2024 08:47:21 PM,11/04/2024 09:42:39 AM,1,10,8,32,32
72665,6th Ave&Geary Blvd SW-FS/BZ,.6AVGEA0,.6AVGEAR,3185,37.780767999999995,-122.464354,,GEARY BLVD,6TH AVE,FS,SW,BZ,0,1729767266000,15727798,147,1,POINT (-122.464354 37.780768),11/02/2024 08:47:21 PM,11/04/2024 09:42:39 AM,8,4,11,5,5
74204,Post St&Octavia St SW-NS/BZ,POSTOCT1,POSTOCTA,6020,37.785906,-122.426654,,OCTAVIA ST,POST ST,NS,SW,BZ,1,1729767266000,15732982,147,2,POINT (-122.426654 37.785906),11/02/2024 08:47:21 PM,11/04/2024 09:42:39 AM,4,11,15,101,101
73152,Castro St&18TH St SW-FS/BB,CTRO18S0,CTRO18ST,4315,37.760863,-122.435048,,18TH ST,CASTRO ST,FS,SW,BB,0,1729767266000,15729176,147,8,POINT (-122.435048 37.760863),11/02/2024 08:47:21 PM,11/04/2024 09:42:39 AM,3,5,5,38,38
73186,Clay St&Polk St SE-FS/BZ,CLAYPOL1,CLAYPOLK,4026,37.792356999999996,-122.42101,1,POLK ST,CLAY ST,FS,SE,BZ,0,1729767266000,15729252,147,3,POINT (-122.42101 37.792357),11/02/2024 08:47:21 PM,11/04/2024 09:42:39 AM,4,3,21,105,105
73126,280 Buckingham Way NW-NS/SB,BUCKH280,BUCKH280,3801,37.72691,-122.48004,,,BUCKINGHAM WAY,NS,NW,,0,1729767266000,15728724,147,7,POINT (-122.48004 37.72691),11/02/2024 08:47:21 PM,11/04/2024 09:42:39 AM,10,8,16,41,41
74091,Church St Station Inbound,CHUR ST1,CHUR STA,5726,37.767193999999996,-122.429168,,TERMINAL,METRO,,,,0,1729767266000,15731993,147,8,POINT (-122.429168 37.767194),11/02/2024 08:47:21 PM,11/04/2024 09:42:39 AM,3,5,5,37,37
74442,Yerba Buena/Moscone Station,YB/MOSC0,,7878,37.782357999999995,-122.401551,,CLEMENTINA ST,04TH ST,,,,0,1729767266000,15738828,147,6,POINT (-122.401551 37.782358),11/02/2024 08:47:21 PM,11/04/2024 09:42:39 AM,1,10,34,32,32
74059,Pacific Ave&Leavenworth St SW-NS/PS,PACFLEA0,PACFLEAV,5846,37.795586,-122.416744,,LEAVENWORTH ST,PACIFIC AVE,NS,SW,,0,1729767266000,15731850,147,3,POINT (-122.416744 37.795586),11/02/2024 08:47:21 PM,11/04/2024 09:42:39 AM,6,3,32,16,16
73670,Irving St&Arguello Blvd SW-NS,IRVGARG1,IRVGARGL,5124,37.764365999999995,-122.458024,1,ARGUELLO BLVD,IRVING ST,NS,SW,,0,1729767266000,15730586,147,7,POINT (-122.458024 37.764366),11/02/2024 08:47:21 PM,11/04/2024 09:42:39 AM,7,11,14,110,110
73330,Eddy St&Scott St SW-NS/PS,EDDYSCO1,EDDYSCOT,4492,37.780724,-122.43736,,SCOTT ST,EDDY ST,NS,SW,,0,1729767266000,15729677,147,5,POINT (-122.43736 37.780724),11/02/2024 08:47:21 PM,11/04/2024 09:42:39 AM,4,11,39,97,97
75651,Font Blvd&Gonzalez Dr W-NS/SB,FONTGNL0,,7236,37.716711,-122.476033,,GONZALEZ DR,FONT BLVD,,WE,,0,1729767266000,15736872,147,7,POINT (-122.476033 37.716711),11/02/2024 08:47:21 PM,11/04/2024 09:42:39 AM,10,8,16,42,42
73941,Jackson St&Jones St N-MI,JACKJON0,JACKJONE,5152,37.795041,-122.414842,,JONES ST,JACKSON ST,MI,NO,,0,1729767266000,15731158,147,3,POINT (-122.414842 37.795041),11/02/2024 08:47:21 PM,11/04/2024 09:42:39 AM,6,3,21,16,16
74536,Union St&Grant Ave NE-NS/PS,UNINGRN2,UNINGRNT,6758,37.80068,-122.4075,,GRANT AVE,UNION ST,NS,NE,,0,1729767266000,15735862,147,3,POINT (-122.4075 37.80068),11/02/2024 08:47:21 PM,11/04/2024 09:42:39 AM,6,3,23,18,18
72910,Bryant St&22ND St SW-FS/BZ,BRYT22S0,BRYT22ST,3743,37.75572,-122.40949,,22ND ST,BRYANT ST,FS,SW,BZ,0,1729767266000,15728497,147,9,POINT (-122.40949 37.75572),11/02/2024 08:47:21 PM,11/04/2024 09:42:39 AM,3,2,20,53,53
74049,Market St&Main St S-NS/SI,MRKTMAI1,MRKTMAIN,5682,37.792984,-122.396627,1,MAIN ST,MARKET ST,NS,SO,SI,0,1729767266000,15732204,147,6,POINT (-122.396627 37.792984),11/02/2024 08:47:21 PM,11/04/2024 09:42:39 AM,6,10,8,108,108
72993,Arguello Blvd&Geary Blvd NW-NS/BZ,ARGLGEA0,ARGLGEAR,3649,37.781428999999996,-122.458955,,GEARY BLVD,ARGUELLO BLVD,NS,NW,BZ,1,1729767266000,15728334,147,1,POINT (-122.458955 37.781429),11/02/2024 08:47:21 PM,11/04/2024 09:42:39 AM,8,4,11,5,5
75524,225 Telegraph Hill Blvd S-NS/SB,TELEH221,TELEH225,6653,37.802988,-122.40664,,TELEGRAPH PL,TELEGRAPH HILL BLVD,NS,SO,,0,1729767266000,15733747,147,3,POINT (-122.40664 37.802988),11/02/2024 08:47:21 PM,11/04/2024 09:42:39 AM,6,3,23,18,18
75737,16th St&Valencia St NE-NS/BZ,16STVLN1,16STVLNC,3300,37.764987,-122.421746,,VALENCIA ST,16TH ST,NS,NE,BZ,0,1729767266000,15733945,147,9,POINT (-122.421746 37.764987),11/02/2024 08:47:21 PM,11/04/2024 09:42:39 AM,3,2,20,53,53
74770,Polk St&Pine St NE-FS/BZ,POLKPIN1,POLKPINE,5995,37.789769,-122.420427,,CALIFORNIA ST,POLK ST,FS,SE,BZ,0,1729767266000,15736042,147,3,POINT (-122.420427 37.789769),11/02/2024 08:47:21 PM,11/04/2024 09:42:39 AM,4,3,21,105,105
74349,Eddy St&Scott St NE-NS/PS,EDDYSCO0,EDDYSCOT,4491,37.780876,-122.437165,,SCOTT ST,EDDY ST,NS,NE,,0,1729767266000,15737207,147,5,POINT (-122.437165 37.780876),11/02/2024 08:47:21 PM,11/04/2024 09:42:39 AM,4,11,39,97,97
75055,Union St&Kearny St NE-NS/PS,UNINKRN2,UNINKRNY,6764,37.800909,-122.405965,,KEARNY ST,UNION ST,NS,NE,,0,1729767266000,15734810,147,3,POINT (-122.405965 37.800909),11/02/2024 08:47:21 PM,11/04/2024 09:42:39 AM,6,3,23,18,18
72838,18th St&Castro St NW-FS/BZ,18STCTR1,18STCTRO,3325,37.760951999999996,-122.43515099999999,,CASTRO ST,18TH ST,FS,NW,BZ,1,1729767266000,15728226,147,8,POINT (-122.435151 37.760952),11/02/2024 08:47:21 PM,11/04/2024 09:42:39 AM,3,5,5,38,38
74907,Van Ness Ave&Union St NS-N/SI,V N UNI2,,8097,37.798576,-122.424035,,UNION ST,VAN NESS AVE,,,,0,1729767266000,15733136,147,3,POINT (-122.424035 37.798576),11/02/2024 08:47:21 PM,11/04/2024 09:42:39 AM,4,6,13,15,15
72659,Bacon St&San Bruno Ave N-MB/BZ,BACNSBR0,BACNSBRO,3018,37.727858999999995,-122.402994,,SAN BRUNO AVE,BACON ST,MB,NO,BZ,0,1729767266000,15727788,147,9,POINT (-122.402994 37.727859),11/02/2024 08:47:21 PM,11/04/2024 09:42:39 AM,2,9,25,91,91
73982,Mission St&Appleton Ave E-FS/BZ,MISSAPT1,MISSAPTN,5577,37.738867,-122.42387099999999,,APPLETON AVE,MISSION ST,FS,EA,BZ,0,1729767266000,15731625,147,9,POINT (-122.423871 37.738867),11/02/2024 08:47:21 PM,11/04/2024 09:42:39 AM,9,2,2,61,61
72703,19th Ave&Quintara St SE-NS/BZ,19AVQUI1,19AVQUIN,3383,37.748529999999995,-122.47590000000001,1,QUINTARA ST,19TH AVE,NS,SE,BZ,1,1729767266000,15727445,147,7,POINT (-122.4759 37.74853),11/02/2024 08:47:21 PM,11/04/2024 09:42:39 AM,10,8,41,44,44
74190,Mission St&Oliver St E-FS/BZ,MISSOLV1,MISSOLVR,5608,37.70962,-122.45006000000001,,OLIVER ST,MISSION ST,FS,EA,BZ,0,1729767266000,15732917,147,11,POINT (-122.45006 37.70962),11/02/2024 08:47:21 PM,11/04/2024 09:42:39 AM,9,1,7,58,58
72642,4th St&Folsom St NS N_PS,.4STFOL1,4STFOLS,3158,37.782081,-122.401333,1,FOLSOM ST,04TH ST,FS,SO,BZ,0,1729767266000,15727747,147,6,POINT (-122.401333 37.782081),11/02/2024 08:47:21 PM,11/04/2024 09:42:39 AM,1,10,34,32,32
75329,Bryant St&25TH St SE-NS/BZ,BRYT25S1,BRYT25ST,3749,37.75111,-122.40889,,25TH ST,BRYANT ST,NS,SE,BZ,0,1729767266000,15735104,147,9,POINT (-122.40889 37.75111),11/02/2024 08:47:21 PM,11/04/2024 09:42:39 AM,3,2,20,53,53
74277,Mendell St&Cargo Way W-FS/SB,MENDCWAO,,7632,37.743804,-122.383313,,CARGO WY,MENDELL ST,,,,0,1729767266000,15738680,147,10,POINT (-122.383313 37.743804),11/02/2024 08:47:21 PM,11/04/2024 09:42:39 AM,2,9,1,76,76
73655,Fillmore St&Golden Gate Ave NE-FS,FILLG G1,FILLG G,4613,37.779858999999995,-122.431955,,GOLDEN GATE AVE,FILLMORE ST,FS,NE,BZ,0,1729767266000,15730157,147,5,POINT (-122.431955 37.779859),11/02/2024 08:47:21 PM,11/04/2024 09:42:39 AM,4,11,39,97,97
75879,Lake Merced & Lakeshore N-NS/SB,L M LKS1,,7852,37.729492,-122.49409,,SUNSET BLVD,LAKE MERCED BLVD,,,,0,1729767266000,15739163,147,4,POINT (-122.49409 37.729492),11/02/2024 08:47:21 PM,11/04/2024 09:42:39 AM,10,8,35,43,43
73706,Hayes St&Masonic Ave SE-FS/BZ,HAYSMSI1,HAYSMSIC,5002,37.773925999999996,-122.44600299999999,,MASONIC AVE,HAYES ST,FS,SE,BZ,1,1729767266000,15730705,147,5,POINT (-122.446003 37.773926),11/02/2024 08:47:21 PM,11/04/2024 09:42:39 AM,7,11,18,24,24
75791,Fulton St&28TH Ave NW-FS/BZ,FULT28A2,,7727,37.772473999999995,-122.487504,,28TH AVE,FULTON ST,,,,0,1729767266000,15738519,147,1,POINT (-122.487504 37.772474),11/02/2024 08:47:21 PM,11/04/2024 09:42:39 AM,8,4,29,8,8
74779,Gilman Ave&Bill Walsh Way W-NS/SB,GLMNBWSH,PLYMBROD,5955,37.717501999999996,-122.38699,,GIANTS DR,GILMAN AVE,NS,NW,,0,1729767266000,15737546,147,10,POINT (-122.38699 37.717502),11/02/2024 08:47:21 PM,11/04/2024 09:42:39 AM,2,9,1,88,88
74529,Williams Ave&Reddy St NE-NS,WLMSRED0,WLMSREDY,6970,37.729729999999996,-122.39525,,REDDY ST,WILLIAMS AVE,NS,NE,FL,0,1729767266000,15735840,147,10,POINT (-122.39525 37.72973),11/02/2024 08:47:21 PM,11/04/2024 09:42:39 AM,2,9,1,87,87
73338,Columbus Ave&North Point St E-MB/BZ,COLMNPT0,COLMBAY,4116,37.80549,-122.41758899999999,,NORTH POINT ST,COLUMBUS AVE,MB,NE,BZ,0,1729767266000,15729322,147,3,POINT (-122.417589 37.80549),11/02/2024 08:47:21 PM,11/04/2024 09:42:39 AM,6,3,23,99,99
75012,Gilman Ave&Jennings St E-NS/PS,GLMNJEN1,GLMNJENN,4786,37.721413,-122.393595,,JENNINGS ST,GILMAN AVE,NS,EA,,0,1729767266000,15733212,147,10,POINT (-122.393595 37.721413),11/02/2024 08:47:21 PM,11/04/2024 09:42:39 AM,2,9,1,88,88
75397,Fillmore St&McAllister St SE-NS/BZ,FILLMCA1,FILLMCAL,4628,37.77854,-122.431687,,MCALLISTER ST,FILLMORE ST,NS,SE,BZ,1,1729767266000,15738212,147,5,POINT (-122.431687 37.77854),11/02/2024 08:47:21 PM,11/04/2024 09:42:39 AM,4,11,39,97,97
72967,Bryant St&17TH St SE-NS/BZ,BRYT17S1,BRYT17ST,3732,37.76422,-122.41028,,17TH ST,BRYANT ST,NS,SE,BZ,0,1729767266000,15728268,147,9,POINT (-122.41028 37.76422),11/02/2024 08:47:21 PM,11/04/2024 09:42:39 AM,3,9,20,53,53
73441,Davis St&Pine St W-MB/SB,DAVSPIN0,DAVSPINE,4347,37.792608,-122.397532,1,BEALE ST,DAVIS ST,MB,WE,,0,1729767266000,15730000,147,3,POINT (-122.397532 37.792608),11/02/2024 08:47:21 PM,11/04/2024 09:42:39 AM,6,3,8,108,108
73273,Fulton St&33RD Ave SW-NS/BZ,FULT33A1,FULT33AV,4212,37.7721,-122.49288,,33RD AVE,FULTON ST,NS,SW,FL,0,1729767266000,15729498,147,1,POINT (-122.49288 37.7721),11/02/2024 08:47:21 PM,11/04/2024 09:42:39 AM,8,4,12,9,9
73058,Cortland Ave&Bayshore Blvd SW-NS/BZ,CORTBSH1,CORTBSHR,4148,37.739567,-122.407031,,CORTLAND AVE,BAY SHORE BLVD,NS,SW,BZ,1,1729767266000,15728866,147,10,POINT (-122.407031 37.739567),11/02/2024 08:47:21 PM,11/04/2024 09:42:39 AM,2,2,2,82,82
75667,Silver Ave&Bayshore Blvd E-FS/BZ,SILVBSH0,SILVBSHR,6397,37.733052,-122.404365,,BAY SHORE BLVD,SILVER AVE,FS,EA,BZ,0,1729767266000,15736931,147,10,POINT (-122.404365 37.733052),11/02/2024 08:47:21 PM,11/04/2024 09:42:39 AM,2,9,1,87,87
73750,Kiska Rd&Dormitory Rd N-FS,KISKDORM,KRWDDORM,4827,37.72988,-122.37527,,DORMITORY RD,KIRKWOOD AVE,FS,NO,FL,0,1729767266000,15730542,147,10,POINT (-122.37527 37.72988),11/02/2024 08:47:21 PM,11/04/2024 09:42:39 AM,2,9,1,78,78
75877,Pennslvania Ave & 20th SE-NS/PS,PENN20ST,,7849,37.760182,-122.393348,,20TH ST,PENNSYLVANIA AVE,,,,0,1729767266000,15739155,147,10,POINT (-122.393348 37.760182),11/02/2024 08:47:21 PM,11/04/2024 09:42:39 AM,2,9,26,54,54
73939,Jackson St&Hyde St NE-NS,JACKHYD0,JACKHYDE,5150,37.79464,-122.417994,,HYDE ST,JACKSON ST,NS,NE,,0,1729767266000,15731153,147,3,POINT (-122.417994 37.79464),11/02/2024 08:47:21 PM,11/04/2024 09:42:39 AM,6,3,32,16,16
74337,Fulton St&Parker Ave NW-FS/BZ,FULTPRK0,FULTPRKR,4233,37.775014,-122.452868,,PARKER AVE,FULTON ST,FS,NW,BZ,0,1729767266000,15737183,147,1,POINT (-122.452868 37.775014),11/02/2024 08:47:21 PM,11/04/2024 09:42:39 AM,7,4,18,12,12
75243,Stockton St&Pacific Ave W-MB/BB,STOKPAC1,STOKPACF,6521,37.79716,-122.40862,,PACIFIC AVE,STOCKTON ST,MB,WE,BB,1,1729767266000,15736552,147,3,POINT (-122.40862 37.79716),11/02/2024 08:47:21 PM,11/04/2024 09:42:39 AM,6,3,6,104,104
74561,Corbett Ave&Iron Aly W-NS/PS,CRBTIRON,CRBTIRON,4182,37.75783,-122.444743,,IRON ALY,CORBETT AVE,NS,WE,,0,1729767266000,15737404,147,8,POINT (-122.444743 37.75783),11/02/2024 08:47:21 PM,11/04/2024 09:42:39 AM,7,5,5,47,47
75067,O'Farrell St&Taylor St S-MB/BB,OFARTAY1,,7301,37.785849999999996,-122.41198,1,TAYLOR ST,OFARRELL ST,,,,0,1729767266000,15736294,147,5,POINT (-122.41198 37.78585),11/02/2024 08:47:21 PM,11/04/2024 09:42:39 AM,5,10,36,20,20
75126,Powell Station Outbound,POWL ST0,POWL STA,6995,37.7843,-122.407822,,METRO TUNNEL,POWELL STATION,,,,0,1729767266000,15736403,147,3,POINT (-122.407822 37.7843),11/02/2024 08:47:21 PM,11/04/2024 09:42:39 AM,5,3,36,19,19
74358,Mission St&San Jose Ave OB S-FS/BZ,MISSS.J0,MISSS.J.,7099,37.706372,-122.459975,,CROCKER AVE,MISSION ST,FS,SO,BZ,0,1729767266000,15737228,147,,POINT (-122.459975 37.706372),11/02/2024 08:47:21 PM,11/04/2024 09:42:39 AM,,,,,
74423,900 Teresita Blvd SW-NS/BZ,TEREH901,TEREH900,6661,37.73399,-122.44664,,,TERESITA BLVD,NS,SW,BZ,0,1729767266000,15735788,147,7,POINT (-122.44664 37.73399),11/02/2024 08:47:21 PM,11/04/2024 09:42:39 AM,9,8,41,95,95
74085,Naples St&Rolph St S-NS/PS,NAPLRLP1,NAPLRLPH,5482,37.713457,-122.436626,,ROLPH ST,NAPLES ST,NS,SO,,1,1729767266000,15731986,147,11,POINT (-122.436626 37.713457),11/02/2024 08:47:21 PM,11/04/2024 09:42:39 AM,9,1,7,58,58
74836,Van Ness Ave&Vallejo St FS-N/SI,V N VAJ3,,8095,37.796800999999995,-122.42360000000001,,GREEN ST,VAN NESS AVE,,,,0,1729767266000,15734578,147,3,POINT (-122.4236 37.796801),11/02/2024 08:47:21 PM,11/04/2024 09:42:39 AM,4,6,32,105,105
75779,Third Street&Marin St. SE-NS/PS,.3STMRN1,,7377,37.748954,-122.38741,1,ARTHUR AVE,03RD ST,,,,0,1729767266000,15737012,147,10,POINT (-122.38741 37.748954),11/02/2024 08:47:21 PM,11/04/2024 09:42:39 AM,2,9,1,56,56
74003,Mission St&20th St NE-FS/BZ,MISS20S1,MISS20ST,5557,37.75911,-122.41902,,20TH ST,MISSION ST,FS,NE,BZ,1,1729767266000,15731682,147,9,POINT (-122.41902 37.75911),11/02/2024 08:47:21 PM,11/04/2024 09:42:39 AM,3,2,20,53,53
